id,name,iso3,geometry,lat,lon,export,import,trans,throughput
port1188,Shanghai_China,CHN,POINT (121.64419683599843 31.191795361150508),31.191795361150508,121.64419683599843,326674425936.3316,165316641856.7661,203801895574.61316,695792963367.7109
port1414,Yiantian_China,CHN,POINT (114.29351576122542 22.58487742159139),22.58487742159139,114.29351576122542,237302599099.68594,48627790094.00157,22008139341.403008,307938528535.0905
port1065,Pusan_South Korea,KOR,POINT (128.9385952279162 35.089550669656816),35.089550669656816,128.9385952279162,233627790973.79327,133290809766.4769,273439355150.20035,640357955890.4705
port57,Antwerp_Belgium,BEL,POINT (4.3178023106669565 51.27935494428036),51.27935494428036,4.3178023106669565,230883459331.64383,139623487863.31546,54949354163.12299,425456301358.0823
port541,Kao Hsiung_Taiwan,TWN,POINT (120.322684663521 22.561527802321525),22.561527802321525,120.322684663521,176489126839.84845,94310273734.42093,12238938276.478296,283038338850.7477
port1201,Singapore_Singapore,SGP,POINT (103.70748156486187 1.2719892565052655),1.2719892565052655,103.70748156486187,164484170790.9364,196410725127.5322,872434167485.0281,1233329063403.4966
port1114,Rotterdam_Netherlands,NLD,POINT (4.2151449665234955 51.922281208398175),51.922281208398175,4.2151449665234955,145184416053.96585,165394745570.20425,68362645936.97691,378941807561.14703
port526,Ju Aymah LPG Terminal_Saudi Arabia,SAU,POINT (49.97698013064791 26.803190513519926),26.803190513519926,49.97698013064791,143244174769.00934,580183475.6855623,1820508479.7447655,145644866724.43967
port824,Ningbo_China,CHN,POINT (121.88184079368102 29.92076897028836),29.92076897028836,121.88184079368102,128508259932.02705,90948367175.57037,23663216893.256596,243119844000.854
port168,Bremerhaven_Germany,DEU,POINT (8.555056667114231 53.54944124151818),53.54944124151818,8.555056667114231,105971834626.77643,54695781148.74307,38737169239.57102,199404785015.0905
port111,Bangkok_Thailand,THA,POINT (100.57258442370488 13.68350932327134),13.68350932327134,100.57258442370488,94645656089.23845,45719126356.097725,334996678.8119559,140699779124.14813
port1189,Shekou_China,CHN,POINT (113.81033766451579 22.581467615726968),22.581467615726968,113.81033766451579,86731221801.99712,53539705882.09836,43747597740.491585,184018525424.58704
port581,Kobe_Japan,JPN,POINT (135.22932705230667 34.67293988896983),34.67293988896983,135.22932705230667,86286434887.6943,52383927495.12342,34699336714.57117,173369699097.3889
port1069,Qingdao Gang_China,CHN,POINT (120.22261806874693 36.026779053777375),36.026779053777375,120.22261806874693,83731156373.82556,92889877505.62451,51235702498.82117,227856736378.27124
port474,Hong Kong_Hong Kong,HKG,POINT (114.09665194051334 22.335109262829082),22.335109262829082,114.09665194051334,74741205968.32652,146512858678.43054,38879320593.032715,260133385239.7898
port1424,Zeebrugge_Belgium,BEL,POINT (3.212225359193582 51.32626774343623),51.32626774343623,3.212225359193582,72956770734.90369,36398808681.47072,8756258847.122198,118111838263.4966
port664,Los Angeles_U.S.A.,USA,POINT (-118.24378813374709 33.755691934355504),33.755691934355504,-118.24378813374709,70880254787.6487,332603851638.91296,55419729490.75714,458903835917.3188
port481,Houston_U.S.A.,USA,POINT (-95.13978774329904 29.720231142824687),29.720231142824687,-95.13978774329904,69695441090.95074,84443181600.81622,11369354971.600006,165507977663.36697
port446,Hamburg_Germany,DEU,POINT (9.964294337690003 53.51640055798953),53.51640055798953,9.964294337690003,69611068482.62257,65508392071.22534,13392168214.511786,148511628768.3597
port833,Novorossiysk_Russia,RUS,POINT (37.80872150232945 44.72345597849215),44.72345597849215,37.80872150232945,66847094530.18132,8385218097.369086,1937086013.2731442,77169398640.82355
port1417,Yokohama Ko_Japan,JPN,POINT (139.6688122927324 35.427555533441485),35.427555533441485,139.6688122927324,66023926966.80974,22977918701.990414,89559625962.28607,178561471631.08624
port1350,Vancouver_Canada,CAN,POINT (-123.0289043972785 49.289963992324004),49.289963992324004,-123.0289043972785,62793316115.74523,15288804065.270634,5493182988.678594,83575303169.69446
port815,New York-New Jersey_U.S.A.,USA,POINT (-74.17942126290532 40.63298387254996),40.63298387254996,-74.17942126290532,62564189061.5058,202636423469.25513,55091999732.43614,320292612263.1971
port960,Port Klang_Malaysia,MYS,POINT (101.34030632698394 2.972594826366589),2.972594826366589,101.34030632698394,61004328246.759,69961658585.02684,42857181319.287926,173823168151.07376
port395,Gioia Tauro_Italy,ITA,POINT (15.913639211618914 38.463398776609),38.463398776609,15.913639211618914,54417142858.85236,54655624729.973175,21851725680.717873,130924493269.5434
port776,Mumbai (bonbay)_India,IND,POINT (72.93965039427164 18.917322756545484),18.917322756545484,72.93965039427164,50356842343.94682,34462320616.02638,24738563257.335762,109557726217.30896
port262,Cork_Ireland,IRL,POINT (-8.360436822326843 51.87249836526492),51.87249836526492,-8.360436822326843,47372336201.21494,16896935438.976742,1779733728.0226464,66049005368.214325
port1170,Savannah_U.S.A.,USA,POINT (-81.10052022006369 32.104024540837706),32.104024540837706,-81.10052022006369,44888284021.07506,75642909368.6677,29579846922.61329,150111040312.35605
port786,Nagoya Ko_Japan,JPN,POINT (136.85007840303058 35.036185434847944),35.036185434847944,136.85007840303058,44587517914.68524,34947927686.18744,8681279320.492706,88216724921.36539
port512,Jabal Az Zannah-Ruways_United Arab Emirates,ARE,POINT (52.71021364176625 24.126975861488553),24.126975861488553,52.71021364176625,44284038281.9186,2200172284.2701974,19030656921.39926,65514867487.58806
port1216,Southampton_United Kingdom,GBR,POINT (-1.429531609481483 50.90206160790425),50.90206160790425,-1.429531609481483,44234719721.59936,53892291427.0214,52994373654.87644,151121384803.4972
port1338,Ulsan_South Korea,KOR,POINT (129.37808377639416 35.48647294441066),35.48647294441066,129.37808377639416,44212917008.70424,22977118539.47223,12220914062.805218,79410949610.98169
port1348,Valencia_Spain,ESP,POINT (-0.3223452046263597 39.442209532556426),39.442209532556426,-0.32234520462635974,44179898273.26308,38062805115.5024,72096709116.83928,154339412505.60474
port1297,Tianjin Xin Gang_China,CHN,POINT (117.73361492682544 38.939725902990304),38.939725902990304,117.73361492682544,43154830970.96169,44245242907.84732,273711821.2293769,87673785700.03839
port985,Port of Le Havre_France,FRA,POINT (0.2093815466785828 49.4720613184748),49.4720613184748,0.2093815466785828,42595968016.881744,39424065165.57883,68929397906.52528,150949431088.98584
port812,New Orleans_U.S.A.,USA,POINT (-90.13086771623864 29.93003342524773),29.93003342524773,-90.13086771623864,41780533210.66594,27451362902.28716,5310989167.909268,74542885280.86237
port1197,Si Racha_Thailand,THA,POINT (100.89999161011323 13.088733702717965),13.088733702717965,100.89999161011323,41599221563.30436,18190152956.682205,1820415705.1561465,61609790225.14271
port955,Port Hedland_Australia,AUS,POINT (118.56434162641783 -20.33066002730353),-20.33066002730353,118.56434162641783,40617936015.76148,1699409044.1375115,5572660.69355762,42322917720.59255
port1160,Santos_Brazil,BRA,POINT (-46.336563531544485 -23.91706786651937),-23.91706786651937,-46.336563531544485,38404525114.68062,35218512868.56376,9722778894.537329,83345816877.78171
port622,La Spezia_Italy,ITA,POINT (9.845731126409616 44.09958063358793),44.09958063358793,9.845731126409616,37907519757.283775,20156524015.940544,3155306259.566142,61219350032.79046
port1237,Surabaya_Indonesia,IDN,POINT (112.72166747072802 -7.200873408963196),-7.200873408963196,112.72166747072802,37869549794.77089,22880637079.498516,3132656508.2160482,63882843382.48546
port276,Dampier_Australia,AUS,POINT (116.7424761471211 -20.626686598862754),-20.626686598862754,116.7424761471211,37261517489.47472,1674825845.4414163,12978785192.80707,51915128527.7232
port231,Charleston_U.S.A.,USA,POINT (-79.92115798771714 32.89929619779481),32.89929619779481,-79.92115798771714,35606501677.443825,52908944805.143845,32072805798.339787,120588252280.92746
port1305,Tokyo Ko_Japan,JPN,POINT (139.79257807484336 35.606071135583385),35.606071135583385,139.79257807484336,34928088652.87717,58523997823.49133,49664529743.44278,143116616219.81128
port744,Mina Jabal Ali_United Arab Emirates,ARE,POINT (55.07781687464225 24.999419469209567),24.999419469209567,55.07781687464225,34728731710.57251,109081809670.08676,60464550724.61174,204275092105.271
port103,Baltimore_U.S.A.,USA,POINT (-76.5569732963815 39.259760370816956),39.259760370816956,-76.5569732963815,33784153602.35356,40630658228.44124,1268869469.0201523,75683681299.81496
port387,Genova_Italy,ITA,POINT (8.858680067801865 44.41310049391406),44.41310049391406,8.858680067801865,33529553590.571655,18926412097.945793,8852168633.806849,61308134322.324295
port1269,Tanjung Pelepas_Malaysia,MYS,POINT (103.5464031814828 1.3499828031447558),1.3499828031447558,103.5464031814828,32065915066.085907,33071044981.45988,29275324251.68521,94412284299.231
port273,Dalian_China,CHN,POINT (121.77030099721195 38.987035504564595),38.987035504564595,121.77030099721195,31066726039.246574,26839636757.631294,2472803055.1611333,60379165852.039
port570,King Fahd Port_Saudi Arabia,SAU,POINT (38.27170364817133 23.95087467803486),23.95087467803486,38.27170364817133,30901007532.28047,3766100993.623649,2868731125.73108,37535839651.6352
port738,Mikawa_Japan,JPN,POINT (137.29090932614704 34.73606977250664),34.73606977250664,137.29090932614704,29975167958.46062,9146499065.838089,6444064175.423385,45565731199.72209
port1090,Ras Laffan_Qatar,QAT,POINT (51.590499257567934 25.908506764824356),25.908506764824356,51.590499257567934,29631482374.610825,832035317.9551702,8078442028.685977,38541959721.25197
port506,Itaqui_Brazil,BRA,POINT (-44.353492874739295 -2.6271135679170254),-2.6271135679170254,-44.353492874739295,29295375929.880825,6925625870.975871,784263.9578374007,36221786064.81454
port514,Jakarta_Indonesia,IDN,POINT (106.90548758886754 -6.100544626576063),-6.100544626576063,106.90548758886754,29243224481.41572,40221975444.9563,8085388382.928028,77550588309.30005
port1123,Saint-Laurent-du-Maroni_French Guiana,GUF,POINT (-54.035465383184466 5.4943417084017305),5.4943417084017305,-54.035465383184466,28413275825.28831,19508054531.122086,0.0,47921330356.4104
port1404,Xiamen_China,CHN,POINT (118.0205535858111 24.46593394092694),24.46593394092694,118.0205535858111,27538833465.400387,43489684924.899925,30420384275.372753,101448902665.67307
port1150,Sankt-Peterburg_Russia,RUS,POINT (30.112183533681513 59.89971977038212),59.89971977038212,30.112183533681513,27004865777.513203,7294460364.790888,1386518888.893672,35685845031.19776
port238,Chi-Lung_Taiwan,TWN,POINT (121.75200586683812 25.147179939068234),25.147179939068234,121.75200586683812,26196052405.536606,35213408059.76274,5716254748.238365,67125715213.53771
port699,Manzanillo_Mexico,MEX,POINT (-104.28766089294594 19.056267448711093),19.056267448711093,-104.28766089294594,26005565655.15537,42020862022.79506,5410746361.427318,73437174039.37775
port1095,Reka Luga_Russia,RUS,POINT (28.40566475320543 59.68266556153349),59.68266556153349,28.40566475320543,25925702511.581882,1791718217.0594673,229838854.99407232,27947259583.63542
port343,Felixstow_United Kingdom,GBR,POINT (1.2931483700092365 51.95411086516388),51.95411086516388,1.2931483700092365,25908626524.297787,76301325032.3099,17627675500.2258,119837627056.8335
port826,Norfolk_U.S.A.,USA,POINT (-76.33049227804739 36.849627484186534),36.849627484186534,-76.33049227804739,25659210065.39273,7369001957.696593,8512067410.9423485,41540279434.03168
port31,Algeciras_Spain,ESP,POINT (-5.414266527700274 36.16592191437791),36.16592191437791,-5.414266527700274,25307983569.33706,24008125218.074825,171785779541.63416,221101888329.04602
port278,Dar Es Salaam_Tanzania,TZA,POINT (39.296196235380854 -6.843548594602096),-6.843548594602096,39.296196235380854,25288792675.697052,18080405040.630634,178750225.4480691,43547947941.77575
port903,Phu My_Vietnam,VNM,POINT (107.02605995730788 10.571698360654068),10.571698360654068,107.02605995730788,23326673156.57688,14110914665.346075,232381872.2553944,37669969694.17835
port1219,St John_Canada,CAN,POINT (-66.03688906547066 45.272399803592634),45.272399803592634,-66.03688906547066,22891303236.703236,6085770471.788893,3013505869.695415,31990579578.187542
port740,Milford Haven_United Kingdom,GBR,POINT (-5.023498673563534 51.700542852180774),51.700542852180774,-5.023498673563534,22418232967.380608,25017869029.539,6932905169.004818,54369007165.92442
port1342,Umm Said_Qatar,QAT,POINT (51.56713164002737 24.963588309115334),24.963588309115334,51.56713164002737,21983473183.463135,11001608657.70583,2334048454.0603366,35319130295.2293
port311,Durban_South Africa,ZAF,POINT (31.023022434194175 -29.882129614364494),-29.882129614364494,31.023022434194175,21566105309.34455,37696894731.669304,1756973727.3727963,61019973768.38665
port1091,Ras Tannurah_Saudi Arabia,SAU,POINT (50.1229154313664 26.67168923356191),26.67168923356191,50.1229154313664,21526496967.239037,2221146996.0608764,6225376591.840434,29973020555.140347
port743,Mina Al Ahmadi_Kuwait,KWT,POINT (48.145145738190614 29.04554779945024),29.04554779945024,48.145145738190614,21041056621.308018,7487512190.477301,1965125950.570234,30493694762.35555
port118,Barcelona_Spain,ESP,POINT (2.1464898987441767 41.3379783937254),41.3379783937254,2.1464898987441767,20740109487.8956,20778226356.08076,27703031282.152405,69221367126.12877
port45,Amsterdam_Netherlands,NLD,POINT (4.819634112054576 52.410361653244415),52.410361653244415,4.819634112054576,20514296211.36947,32959683902.691933,652286423.3523979,54126266537.4138
port155,Bonny_Nigeria,NGA,POINT (7.157020931593515 4.420690387691537),4.420690387691537,7.157020931593515,20399720757.690903,323297.32359279116,161376251.24779782,20561420306.262295
port383,Geelong_Australia,AUS,POINT (144.36537251126336 -38.095292647827776),-38.095292647827776,144.36537251126336,20129357479.675076,1978989910.5110075,1098905831.9891798,23207253222.175266
port694,Manila_Philippines,PHL,POINT (120.87239976763306 14.591608787403127),14.591608787403127,120.87239976763306,20086193953.314087,36587658631.608604,1398939161.1007943,58072791746.02348
port422,Guaiba Island Terminal_Brazil,BRA,POINT (-43.783076444468065 -22.91555492047408),-22.91555492047408,-43.783076444468065,20002067446.214096,7413359051.845629,88208289.3605726,27503634787.420296
port1396,Wilhelmshaven_Germany,DEU,POINT (8.124443684903325 53.58031397623287),53.58031397623287,8.124443684903325,19653891466.0585,21414247444.1607,7788337845.709925,48856476755.92912
port1045,Puerto Del Callao_Peru,PER,POINT (-77.1402309377948 -12.047308786690756),-12.047308786690756,-77.1402309377948,19641024767.518684,50909434305.82817,13892731522.920868,84443190596.26773
port644,Lianyungang_China,CHN,POINT (119.43596629991742 34.741330167428174),34.741330167428174,119.43596629991742,19623990450.517166,28298292330.19011,20457655.862417944,47942740436.569695
port504,Istanbul_Turkey,TUR,POINT (28.73553234047545 40.96999344271692),40.96999344271692,28.73553234047545,19460365018.24556,30166290076.68724,53215020746.990425,102841675841.92322
port777,Mundra_India,IND,POINT (69.62201880204134 22.762969982072423),22.762969982072423,69.62201880204134,19160987067.101532,8649640191.79654,594058393.4069575,28404685652.305027
port307,Dublin_Ireland,IRL,POINT (-6.2049355930749925 53.346325378054146),53.346325378054146,-6.2049355930749925,18019851427.06064,21106981249.579044,1135964709.8822663,40262797386.52194
port1108,Rosario_Argentina,ARG,POINT (-60.5734808863742 -33.048565378702385),-33.048565378702385,-60.5734808863742,18004442728.43133,493356675.7041483,22127.30208529702,18497821531.437565
port1248,Tacoma_U.S.A.,USA,POINT (-122.39121233325841 47.253565796308976),47.253565796308976,-122.39121233325841,17960851746.669453,60721015002.309044,2295978010.044116,80977844759.02261
port951,Port Everglades_U.S.A.,USA,POINT (-80.12439561489067 26.081050903250397),26.081050903250397,-80.12439561489067,17794306085.03133,8935740682.747011,13172383027.192005,39902429794.97035
port862,Osaka_Japan,JPN,POINT (135.43002624041546 34.644930603547984),34.644930603547984,135.43002624041546,17760408302.837883,39106776930.97212,11695334170.57031,68562519404.38032
port760,Mongstad_Norway,NOR,POINT (5.044241786748606 60.82173558216646),60.82173558216646,5.044241786748606,17748222292.641846,2248536791.796338,3973736348.5797353,23970495433.017918
port1266,Tangshan (Jingtang)_China,CHN,POINT (119.02124691645976 39.23528919041797),39.23528919041797,119.02124691645976,17520405064.704647,21520844127.477585,19394407.518506087,39060643599.700745
port747,Mina Saqr_United Arab Emirates,ARE,POINT (56.06305892477211 25.967286473922833),25.967286473922833,56.06305892477211,17012114584.126812,278596897.3384715,5832.047262395718,17290717313.512547
port843,Odesa_Ukraine,UKR,POINT (30.738071212173438 46.50128327972901),46.50128327972901,30.738071212173438,16585599380.028606,5025250207.951898,447481430.2808663,22058331018.261368
port659,London Gateway_United Kingdom,GBR,POINT (0.5163363915694573 51.51025908266481),51.51025908266481,0.5163363915694573,16418132769.783268,17386702400.014725,57497968199.41901,91302803369.217
port1081,Rabigh_Saudi Arabia,SAU,POINT (39.053760288681815 22.638733525201353),22.638733525201353,39.053760288681815,16156010564.414274,18102363298.37116,19869679215.291523,54128053078.07695
port437,Haikou_China,CHN,POINT (110.28082679678306 20.03232282604763),20.03232282604763,110.28082679678306,16081788030.4701,26287232422.53835,20561611.479782596,42389582064.488235
port1072,Qinhuangdao_China,CHN,POINT (119.65000657265892 39.92645539422683),39.92645539422683,119.65000657265892,15972800979.225595,4487691227.714474,82184.41431542102,20460574391.354385
port269,Da Nang_Vietnam,VNM,POINT (108.22964665667345 16.115138007234656),16.115138007234656,108.22964665667345,15852477642.54928,8273066754.550488,307308329.1633672,24432852726.263138
port629,Lake Charles_U.S.A.,USA,POINT (-93.31148796186308 30.190647447424137),30.190647447424137,-93.31148796186308,15847832260.692019,2848415320.827381,1018132174.9599147,19714379756.479317
port24,Al Jubayl_Saudi Arabia,SAU,POINT (49.6603902971205 27.055730142783407),27.055730142783407,49.6603902971205,15340238142.736732,2189391522.6509886,535768399.57790256,18065398064.965626
port1368,Vitoria_Brazil,BRA,POINT (-40.33140066429062 -20.32616721226767),-20.32616721226767,-40.33140066429062,15317671271.475582,3715928290.9037247,81337154.58487536,19114936716.964184
port816,Newcastle_Australia,AUS,POINT (151.757747141857 -32.89445588348178),-32.89445588348178,151.757747141857,15299903363.144806,2426788975.9251995,286979583.020903,18013671922.09091
port264,Corpus Christi_U.S.A.,USA,POINT (-97.3799079100681 27.84122725064461),27.84122725064461,-97.3799079100681,15154110928.642567,7468816497.745898,381120205.7135584,23004047632.102024
port1062,Pulau Pinang_Malaysia,MYS,POINT (100.38998146253296 5.379749740782547),5.379749740782547,100.38998146253296,15140424450.368536,7850814036.866019,70993389.63663828,23062231876.871193
port637,Lazaro Cardenas_Mexico,MEX,POINT (-102.18437112541875 17.944252129652373),17.944252129652373,-102.18437112541875,14881690310.145393,13925580401.51473,286251603.4281079,29093522315.088234
port736,Miami_U.S.A.,USA,POINT (-80.18326590234456 25.778217283839663),25.778217283839663,-80.18326590234456,14747114843.107246,7430838097.246321,33850493917.68229,56028446858.03586
port1406,Yakacik_Turkey,TUR,POINT (36.20476888395528 36.71363081392979),36.71363081392979,36.20476888395528,14694378198.771563,7035923036.453741,130859710.90588593,21861160946.13119
port988,Port of Sohar_Oman,OMN,POINT (56.61271789820087 24.511687426479416),24.511687426479416,56.61271789820087,14632527551.685337,4782829303.686083,4100125.155421298,19419456980.526844
port408,Goteborg_Sweden,SWE,POINT (11.889599436931674 57.70859886896139),57.70859886896139,11.889599436931674,14553421298.227715,8507622204.497686,3479443362.9125214,26540486865.637924
port1133,Saldanha Bay_South Africa,ZAF,POINT (18.007712564357252 -32.99778092558085),-32.99778092558085,18.007712564357252,14505984532.799265,1593962850.5587115,227670.687185482,16100175054.045162
port133,Bayuquan_China,CHN,POINT (122.06684214776212 40.265129996682546),40.265129996682546,122.06684214776212,14214505075.775917,26054113582.59814,344859.59306672314,40268963517.96712
port260,Constanta_Romania,ROU,POINT (28.648438622240928 44.13174252572028),44.13174252572028,28.648438622240928,14089175232.985977,20220471370.849667,1257537833.761938,35567184437.59758
port1278,Tauranga_New Zealand,NZL,POINT (176.1846333349249 -37.660488472655246),-37.660488472655246,176.1846333349249,14000882280.903612,5848009187.385299,12468680685.33509,32317572153.624
port398,Gladstone_Australia,AUS,POINT (151.21552767768955 -23.819079690458192),-23.819079690458192,151.21552767768955,13890534770.579784,7955374439.139765,329184569.3710136,22175093779.090565
port443,Halifax_Canada,CAN,POINT (-63.5718513763458 44.6662319344433),44.6662319344433,-63.5718513763458,13770062361.633736,13981908932.455946,27520520546.46441,55272491840.55409
port976,Port Saint Louis Du Rhone_France,FRA,POINT (4.8364920744363245 43.41140571883659),43.41140571883659,4.8364920744363245,13651462059.505373,19407633607.414417,4504215964.31971,37563311631.2395
port948,Port Elizabeth_South Africa,ZAF,POINT (25.622625286885004 -33.90336755146096),-33.90336755146096,25.622625286885004,13581703150.328884,16642949153.666195,923383565.85765,31148035869.85273
port739,Milazzo_Italy,ITA,POINT (15.262934271169897 38.2063901031354),38.2063901031354,15.262934271169897,13493643610.90085,13913668175.826557,2361508142.3212504,29768819929.04866
port1175,Seattle_U.S.A.,USA,POINT (-122.34576162820697 47.57185014693231),47.57185014693231,-122.34576162820697,13400134054.503746,32317014600.484745,17098016986.969275,62815165641.95777
port370,Fuzhou_China,CHN,POINT (119.47432414767236 25.777604912592345),25.777604912592345,119.47432414767236,13363325369.855623,14686100997.913946,463867596.1593554,28513293963.928925
port126,Baton Rouge_U.S.A.,USA,POINT (-91.20632260986045 30.43704677406407),30.43704677406407,-91.20632260986045,13320219118.963116,8318259428.455674,22895053.339600794,21661373600.75839
port1074,Quanzhou_China,CHN,POINT (118.70307927091075 24.846103286759167),24.846103286759167,118.70307927091075,13235002584.900265,5751731228.700286,36367331.60057107,19023101145.201122
port1059,Puerto San Martin_Argentina,ARG,POINT (-60.75037430692261 -32.65666374218747),-32.65666374218747,-60.75037430692261,13218000373.03569,495454654.48767084,6981084.370166142,13720436111.893528
port1064,Punta Lobitos (Bahia De Huarmey)_Peru,PER,POINT (-78.17935366424808 -10.102313492008856),-10.102313492008856,-78.17935366424808,12831091210.180748,132250921.19835961,0.0,12963342131.379108
port1358,Veracruz_Mexico,MEX,POINT (-96.1543367647264 19.22121794940443),19.22121794940443,-96.1543367647264,12768290253.048347,12045129988.240942,244318844.76042524,25057739086.049717
port141,Belfast_United Kingdom,GBR,POINT (-5.8924796020470485 54.62301837773251),54.62301837773251,-5.8924796020470485,12751710844.816153,10908651003.716694,200389712.9113688,23860751561.444214
port567,Kikuma Ko_Japan,JPN,POINT (132.86212114082386 34.05365925975023),34.05365925975023,132.86212114082386,12213192094.725098,2643223678.175146,5146343954.7435,20002759727.643745
port393,Ghent_Belgium,BEL,POINT (3.7669417070271725 51.13028980402819),51.13028980402819,3.7669417070271725,12164918635.85645,16720865495.306248,86550386.3818754,28972334517.54457
port274,Damietta_Egypt,EGY,POINT (31.759472476409314 31.462136855631023),31.462136855631023,31.759472476409314,12104343493.557156,12183402195.377928,164057879.2647958,24451803568.19988
port1285,Texas City_U.S.A.,USA,POINT (-94.91276461646224 29.37581006992484),29.37581006992484,-94.91276461646224,11981466589.079174,2264262787.7727494,2333107810.2087927,16578837187.060715
port70,Arzew El Djedid_Algeria,DZA,POINT (-0.2676223049533487 35.819235019961766),35.819235019961766,-0.26762230495334866,11890236443.944963,525386604.1199105,110867183.44220926,12526490231.507084
port1283,Temryuk_Russia,RUS,POINT (37.37619410068499 45.32418556134592),45.32418556134592,37.37619410068499,11885693421.743225,1187077582.2532973,653459889.8845487,13726230893.881071
port1203,Sitrah_Bahrain,BHR,POINT (50.66794163474652 26.189356457279832),26.189356457279832,50.66794163474652,11834809280.340591,12443233473.439983,2027095286.5368555,26305138040.31743
port766,Montreal_Canada,CAN,POINT (-73.53480189392985 45.54455368185625),45.54455368185625,-73.53480189392985,11773137821.5822,14525840569.04813,5546057818.827735,31845036209.458065
port342,Fawley Marine Terminal_United Kingdom,GBR,POINT (-1.3552449111525404 50.839812283650495),50.839812283650495,-1.3552449111525404,11604873509.713854,10257732422.705566,4050880808.8157415,25913486741.23516
port754,Mobile_U.S.A.,USA,POINT (-88.06673452149629 30.665036378630738),30.665036378630738,-88.06673452149629,11459900598.087183,19734342626.45953,2478369415.181161,33672612639.727875
port47,Anacortes_Canada,CAN,POINT (-122.56884570580459 48.48677700366743),48.48677700366743,-122.56884570580459,11236912696.417265,9724620932.218851,252060080.776866,21213593709.412983
port380,Gdansk_Poland,POL,POINT (18.69364422721409 54.37579704132241),54.37579704132241,18.69364422721409,11219388939.309202,19883652677.972767,1791644818.677523,32894686435.95949
port839,Oakland_U.S.A.,USA,POINT (-122.30889416573957 37.808163660245064),37.808163660245064,-122.30889416573957,11107335133.415749,48129933318.18723,19091073763.352448,78328342214.95543
port654,Liverpool_United Kingdom,GBR,POINT (-3.009155852536957 53.42928625797476),53.42928625797476,-3.009155852536957,10883024741.306524,17703192759.18008,4609735075.582214,33195952576.068817
port362,Fujayrah Harbor_United Arab Emirates,ARE,POINT (56.35942059300059 25.20017277781963),25.20017277781963,56.35942059300059,10570580196.823524,4354870387.899527,4173795605.8963685,19099246190.61942
port592,Koper_Slovenia,SVN,POINT (13.74846693218067 45.55731693254389),45.55731693254389,13.74846693218067,10533522270.228487,9097780235.229538,305920222.03887045,19937222727.496895
port933,Port Arthur_U.S.A.,USA,POINT (-93.93104817994141 29.881703011597338),29.881703011597338,-93.93104817994141,10528168779.69429,6898995031.898875,241680580.3120451,17668844391.905212
port134,Beaumont_U.S.A.,USA,POINT (-94.03028275477728 30.025823215444778),30.025823215444778,-94.03028275477728,10458026606.23196,1563247116.7114856,598998734.4380541,12620272457.3815
port162,Botas_Turkey,TUR,POINT (35.918572725092474 36.8767157643925),36.8767157643925,35.918572725092474,10431990422.431265,514988320.1510836,839492682.1757891,11786471424.758137
port1378,Wakamatsu Ko_Japan,JPN,POINT (130.81263360579425 33.91060335023822),33.91060335023822,130.81263360579425,10417588224.87003,6287821318.613493,235873051.79494637,16941282595.27847
port896,Pemba_Mozambique,MOZ,POINT (40.48677494848093 -12.966790207809652),-12.966790207809652,40.48677494848093,10395365052.93802,91093153.38464251,91215570.48281921,10577673776.805481
port1308,Tomakomai Ko_Japan,JPN,POINT (141.72312896658843 42.637521854624524),42.637521854624524,141.72312896658843,10209785695.704548,10536779976.57764,1396332559.3341212,22142898231.61631
port579,Klaipeda_Lithuania,LTU,POINT (21.138120978580748 55.68422129969725),55.68422129969725,21.138120978580748,10189709325.949772,5346018773.976032,373314351.1015596,15909042451.027363
port149,Bintulu Port_Malaysia,MYS,POINT (113.0774259511892 3.2710235494794713),3.2710235494794713,113.0774259511892,10072645647.018623,3796394712.987993,157023452.82778543,14026063812.834402
port439,Hakata_Japan,JPN,POINT (130.39764973384786 33.63170192781617),33.63170192781617,130.39764973384786,10066138488.71579,14009010654.025137,5297002522.004752,29372151664.74568
port735,Mersin_Turkey,TUR,POINT (34.65352385699006 36.80918666161338),36.80918666161338,34.65352385699006,9995317355.869392,14531609469.160917,14430781755.380718,38957708580.411026
port1426,Zhanjiang_China,CHN,POINT (110.40841034362165 21.212127953284217),21.212127953284217,110.40841034362165,9912021949.209946,19816709399.64783,425551035.4082857,30154282384.266064
port993,Portland_U.S.A.,USA,POINT (-122.73550592391067 45.59523874007099),45.59523874007099,-122.73550592391067,9808881808.19273,11545249715.012056,197579736.09469512,21551711259.299484
port1193,Shimizu Ko_Japan,JPN,POINT (138.503845824777 35.020525689067576),35.020525689067576,138.503845824777,9753940158.406414,10297259633.621986,10352117712.40094,30403317504.42934
port1058,Puerto San Antonio_Chile,CHL,POINT (-71.61885508140605 -33.593245282085604),-33.593245282085604,-71.61885508140605,9728325783.738958,20669094266.523087,11253953493.309011,41651373543.57106
port89,Bahia De Valparaiso_Chile,CHL,POINT (-71.62773895334489 -33.033243809773886),-33.033243809773886,-71.62773895334489,9616486539.328026,14133680675.489973,6215037460.911153,29965204675.729153
port583,Kochi (Chochin)_India,IND,POINT (76.25922208387824 9.969351910894181),9.969351910894181,76.25922208387824,9595111547.99291,9391632468.840054,4098772603.0559,23085516619.888863
port1077,Quequen_Argentina,ARG,POINT (-58.70710218624993 -38.575044990651634),-38.575044990651634,-58.70710218624993,9510565757.733025,414115915.0525972,8342.797851533564,9924690015.583473
port1099,Richards Bay_South Africa,ZAF,POINT (32.03937271697629 -28.792398821911224),-28.792398821911224,32.03937271697629,9500738057.38351,2069616806.7405012,1388836.2191356346,11571743700.343147
port518,Jiddah_Saudi Arabia,SAU,POINT (39.16640594273001 21.46079659351468),21.46079659351468,39.16640594273001,9491245187.75939,56341639125.4525,44102669089.61062,109935553402.82251
port548,Kashima Ko_Japan,JPN,POINT (140.6899197765725 35.9165624863423),35.9165624863423,140.6899197765725,9476717150.288647,10642233067.012709,23101251.69042556,20142051468.99178
port1105,Rizhao_China,CHN,POINT (119.5325575335972 35.348909654957744),35.348909654957744,119.5325575335972,9476162655.62342,18735016486.57633,4842641.354987246,28216021783.554737
port1291,Thanh Ho Chi Minh_Vietnam,VNM,POINT (106.76615201380623 10.736240579932543),10.736240579932543,106.76615201380623,9427510844.298927,17991311695.690353,1650977536.5575712,29069800076.546852
port1214,South Louisiana_U.S.A.,USA,POINT (-90.8678107244268 30.1237952598628),30.1237952598628,-90.8678107244268,9403755870.322346,3770306405.849648,436430046.28396183,13610492322.455956
port381,Gdynia_Poland,POL,POINT (18.524510975094508 54.53556217887057),54.53556217887057,18.524510975094508,9330937407.81664,13591596833.59561,2443593435.976061,25366127677.388313
port513,Jacksonville_U.S.A.,USA,POINT (-81.58303357119681 30.383326101047718),30.383326101047718,-81.58303357119681,9303878105.600525,109694762655.7053,3404867435.417073,122403508196.7229
port1067,Pyeongtaek Hang_South Korea,KOR,POINT (126.78462786837086 36.97512759102476),36.97512759102476,126.78462786837086,9155588147.854399,19582832305.687122,31743680.81173856,28770164134.353256
port154,Bohai Bay_China,CHN,POINT (117.86724447634192 38.32313122558751),38.32313122558751,117.86724447634192,9147155623.455677,16231499994.222443,0.0,25378655617.67812
port1164,Sapangar Bay_Malaysia,MYS,POINT (116.12589480732157 6.074811315021572),6.074811315021572,116.12589480732157,9077083472.331617,8550121267.297993,136095434.54336804,17763300174.172977
port1261,Tan-Shui_Taiwan,TWN,POINT (121.38071888832093 25.156631442990154),25.156631442990154,121.38071888832093,9046053496.003876,12103943843.502726,576585431.834194,21726582771.340794
port358,Freeport_U.S.A.,USA,POINT (-95.32605000312248 28.943937379395933),28.943937379395933,-95.32605000312248,8997023581.725246,4379913076.817581,947683674.4144561,14324620332.957283
port5,Abu Zaby_United Arab Emirates,ARE,POINT (54.563682995139125 24.61243287761508),24.61243287761508,54.563682995139125,8994159273.050493,15552540994.625078,5926787925.425345,30473488193.100918
port458,Haypoint_Australia,AUS,POINT (149.28745403108044 -21.28124079171913),-21.28124079171913,149.28745403108044,8978328974.118258,828188790.792515,15068717.534260442,9821586482.445032
port655,Livorno_Italy,ITA,POINT (10.31567022176673 43.57138601972897),43.57138601972897,10.31567022176673,8831245388.088783,16536343489.244106,23702492833.122646,49070081710.455536
port543,Karachi_Pakistan,PAK,POINT (66.98321717869763 24.823274712589168),24.823274712589168,66.98321717869763,8815586147.366425,12676643144.779343,2613760150.2034187,24105989442.349186
port1195,Shougang Jingtang_China,CHN,POINT (118.47549267394592 39.006865243074614),39.006865243074614,118.47549267394592,8769417224.468422,21551617370.491013,20007.754830056903,30321054602.714264
port1054,Puerto Nuevo_Colombia,COL,POINT (-74.21920933549482 11.050319253640394),11.050319253640394,-74.21920933549482,8660764103.569063,280650585.75523174,0.0,8941414689.324295
port1265,Tangier-Mediterranean_Morocco,MAR,POINT (-5.511023901318204 35.87985242254127),35.87985242254127,-5.511023901318204,8640203305.829994,15606541410.42576,16369661090.05228,40616405806.30803
port885,Paranagua_Brazil,BRA,POINT (-48.517135038853496 -25.50523872094073),-25.50523872094073,-48.517135038853496,8636038792.126732,12497205127.873678,102610789.27621038,21235854709.276623
port67,Arhus_Denmark,DNK,POINT (10.229250698962224 56.15113462998881),56.15113462998881,10.229250698962224,8483129803.275643,8241536006.0797825,3397195046.50469,20121860855.860115
port215,Cape Town_South Africa,ZAF,POINT (18.44822890206952 -33.915431968933554),-33.915431968933554,18.44822890206952,8456041428.004116,11137784565.875206,6438899315.685548,26032725309.56487
port990,Port-De-Bouc_France,FRA,POINT (5.009200025112025 43.38879042513164),43.38879042513164,5.009200025112025,8348774093.300704,6960923900.054136,2206469617.397782,17516167610.75262
port658,London_United Kingdom,GBR,POINT (0.1543564408827458 51.48682241447758),51.48682241447758,0.15435644088274578,8326063176.245363,12503881062.770859,238303546.12637177,21068247785.142593
port254,Colombo_Sri Lanka,LKA,POINT (79.83978690091833 6.949982172757183),6.949982172757183,79.83978690091833,8298262598.439873,16118365874.990404,43483135979.97308,67899764453.40336
port23,Al Iskandariyh (Alexandria)_Egypt,EGY,POINT (29.837590529759673 31.15536501576496),31.15536501576496,29.837590529759673,8289601792.0666275,29874605435.320908,17847866.576984562,38182055093.96452
port1369,Vladivostok_Russia,RUS,POINT (131.8967883214997 43.09088665037428),43.09088665037428,131.8967883214997,8266236277.403192,3590123698.8311763,843226277.989549,12699586254.223917
port460,Helsinki_Finland,FIN,POINT (25.046788929460956 60.185863504208136),60.185863504208136,25.046788929460956,8202036907.564045,8123196651.956873,460896524.01553756,16786130083.536455
port310,Dunkerque Port Ouest_France,FRA,POINT (2.2667766493888406 51.02068300332831),51.02068300332831,2.2667766493888406,8183754648.986746,21764265038.298813,1180783405.5026581,31128803092.78822
port471,Hofu_Japan,JPN,POINT (131.57371762522862 34.02251033207972),34.02251033207972,131.57371762522862,8158557326.430115,816558790.3988874,833102487.6452334,9808218604.474236
port1304,Tokuyama_Japan,JPN,POINT (131.78288676809268 34.03990671128202),34.03990671128202,131.78288676809268,8144399364.060808,10281403138.065308,111148322.7041422,18536950824.830257
port1159,Santo Thomas De Castilla_Guatemala,GTM,POINT (-88.60823052907632 15.709400322033659),15.709400322033659,-88.60823052907632,8066523933.961001,5190452950.402023,175807673.6534816,13432784558.016508
port752,Mizushima Ko_Japan,JPN,POINT (133.72429241724208 34.50033450640207),34.50033450640207,133.72429241724208,8014130831.223209,17057687169.877771,462562920.6865263,25534380921.78751
port281,Davao_Philippines,PHL,POINT (125.65946637381833 7.178981080270961),7.178981080270961,125.65946637381833,8009606015.252805,4877331698.456259,105662717.53687723,12992600431.245941
port180,Brunswick_U.S.A.,USA,POINT (-81.51967885646486 31.1318521684773),31.1318521684773,-81.51967885646486,8000434008.857856,10647704296.410059,89942857.3795299,18738081162.64744
port969,Port Methanier_Algeria,DZA,POINT (6.9507613038302845 36.87271664206517),36.87271664206517,6.9507613038302845,7995172550.479175,2710290095.935256,24166554.8530526,10729629201.267483
port1052,Puerto Moin_Costa Rica,CRI,POINT (-83.08925317000586 10.001522717309435),10.001522717309435,-83.08925317000586,7892613322.4881935,5294857954.625576,952408413.3820621,14139879690.495832
port894,PelabuhanRatuCoalPowerPlant_Indonesia,IDN,POINT (106.24644147419654 -6.953376613265222),-6.953376613265222,106.24644147419654,7857546972.74996,1485809164.7018929,0.0,9343356137.451853
port1199,Sikka_India,IND,POINT (69.80786453503961 22.364837245319343),22.364837245319343,69.80786453503961,7790195292.352908,1262244877.391574,5350776.374760494,9057790946.119242
port782,Mykolayiv_Ukraine,UKR,POINT (32.01556028102058 46.93947484943773),46.93947484943773,32.01556028102058,7780364894.578612,481000373.1447171,436950.86544597516,8261802218.588776
port1020,Primorsk_Russia,RUS,POINT (28.73119074180946 60.336941224249294),60.336941224249294,28.73119074180946,7764792518.950128,954621676.8759813,159792487.85011646,8879206683.676226
port220,Casablanca_Morocco,MAR,POINT (-7.578850395884303 33.60660010425234),33.60660010425234,-7.578850395884303,7739714072.1419,12772061411.95653,903646.7969266274,20512679130.89536
port665,Luanda_Angola,AGO,POINT (13.288103692270244 -8.781235498997976),-8.781235498997976,13.288103692270244,7736358854.356766,9200017473.629759,36811006049.3962,53747382377.38273
port792,Nantong_China,CHN,POINT (120.83744377309496 31.986285404302706),31.986285404302706,120.83744377309496,7686262631.048592,10932010022.200989,9821891.81386992,18628094545.06345
port672,Lumut_Malaysia,MYS,POINT (100.64337624058551 4.227365726690005),4.227365726690005,100.64337624058551,7665041621.403978,6358320069.7189245,394.7014055648149,14023362085.824308
port1379,Wakayama-Shimotsu Ko_Japan,JPN,POINT (135.13348941634422 34.18417972507268),34.18417972507268,135.13348941634422,7594983132.439919,1677419216.7699594,5936594.698990012,9278338943.908869
port603,Kuantan New Port_Malaysia,MYS,POINT (103.39318081863952 3.9817262410911605),3.9817262410911605,103.39318081863952,7593583804.4384985,3467003258.560062,261733453.067447,11322320516.066008
port521,Jinzhou Wan_China,CHN,POINT (121.0180678115044 40.77754886559429),40.77754886559429,121.0180678115044,7584563618.025241,6917547706.557399,0.0,14502111324.58264
port883,Paradip_India,IND,POINT (86.64892168293403 20.280453074261438),20.280453074261438,86.64892168293403,7574573201.457725,6025148108.494808,56655.638501614085,13599777965.591036
port873,Paita_Peru,PER,POINT (-81.10649294162987 -5.081938312025953),-5.081938312025953,-81.10649294162987,7571127191.700001,3366348898.9130483,1068820247.3658621,12006296337.97891
port746,Mina Raysut_Oman,OMN,POINT (54.008319801025365 16.942294979400955),16.942294979400955,54.008319801025365,7556620763.622753,6270001697.623121,8497185308.081947,22323807769.32782
port706,Marina Di Carrara_Italy,ITA,POINT (10.0428152015238 44.032909730892044),44.032909730892044,10.0428152015238,7497305081.135497,7132738723.530865,149641171.46223006,14779684976.128593
port917,Point Lisa Port_Trinidad and Tobago,TTO,POINT (-61.48116584031072 10.397073823199829),10.397073823199829,-61.48116584031072,7459240060.961626,1340197070.496493,1526909764.0892372,10326346895.547356
port814,New Westminster_Canada,CAN,POINT (-122.97756750994614 49.1751052493372),49.1751052493372,-122.97756750994614,7456357299.307956,8748620278.245943,1393893501.7848237,17598871079.338722
port1167,Sarroch Oil Terminal_Italy,ITA,POINT (9.013000658244142 39.08586094918751),39.08586094918751,9.013000658244142,7449972081.1499195,4118264070.6405253,2452190675.5714483,14020426827.361893
port1336,Ujung Pandang_Indonesia,IDN,POINT (119.41680452652484 -5.111875810463217),-5.111875810463217,119.41680452652484,7447205244.454259,6976841936.826854,992469348.9805763,15416516530.261688
port434,Hai Phong_Vietnam,VNM,POINT (106.74748482091017 20.84406939448894),20.84406939448894,106.74748482091017,7435887084.110735,11514589780.161982,1044128868.2344251,19994605732.50714
port1038,Puerto De Bilbao_Spain,ESP,POINT (-3.0459612174580553 43.34131008246169),43.34131008246169,-3.0459612174580553,7332532841.985102,10705986419.566893,1014333276.9486425,19052852538.500637
port981,Port Walcott_Australia,AUS,POINT (117.16565147964195 -20.60828612370769),-20.60828612370769,117.16565147964195,7313994482.44964,112889805.55963217,116201.34398088924,7427000489.353253
port984,Port of Duqm_Oman,OMN,POINT (57.71736119241041 19.67066724327393),19.67066724327393,57.71736119241041,7312223560.390046,296483481.35232174,145319620.99331638,7754026662.735684
port1328,Tubarao_Brazil,BRA,POINT (-40.23787540032175 -20.258827139406236),-20.258827139406236,-40.23787540032175,7301180710.17315,3121938171.205178,0.0,10423118881.378328
port1036,Puerto Cortes_Honduras,HND,POINT (-87.94856446212731 15.844512042878797),15.844512042878797,-87.94856446212731,7267192999.04073,9160116867.729431,121053508.1274332,16548363374.897594
port1410,Yantai_China,CHN,POINT (121.41062020815046 37.55733184105751),37.55733184105751,121.41062020815046,7250083085.440719,9364371006.154724,13491176.52779342,16627945268.123238
port538,Kanda_Japan,JPN,POINT (130.99286330169227 33.82174514927828),33.82174514927828,130.99286330169227,7191352590.996344,1887572722.1831918,191098186.9564737,9270023500.13601
port1252,Tai-Chung Kang_Taiwan,TWN,POINT (120.50496684104618 24.254571176267895),24.254571176267895,120.50496684104618,7116125978.022984,15977306146.204401,158869742.20320818,23252301866.430595
port73,Ashdod_Israel,ISR,POINT (34.66849997824742 31.836309090305807),31.836309090305807,34.66849997824742,7075322529.176354,16311702089.865614,19491777.21052571,23406516396.252495
port1005,Porto Di Lido-Venezia_Italy,ITA,POINT (12.242393311069945 45.450522270907676),45.450522270907676,12.242393311069945,7061526830.666007,8426206584.760302,194472314.52674893,15682205729.953056
port1021,Prince Rupert_U.S.A.,USA,POINT (-130.33775976075003 54.26668285438812),54.26668285438812,-130.33775976075003,7002959746.599135,2194870373.943122,61649619.2257897,9259479739.768047
port236,Cherry Point_Canada,CAN,POINT (-122.7139354060087 48.85252004956763),48.85252004956763,-122.7139354060087,6995383549.578451,6678226198.165725,4313124000.913252,17986733748.657425
port241,Chittagong_Bangladesh,BGD,POINT (91.81385426635528 22.28124579916894),22.28124579916894,91.81385426635528,6990101463.527666,15555500309.91151,474380339.9490391,23019982113.388218
port106,Bamdar-E Shahid Reajie_Iran,IRN,POINT (56.06282678889619 27.13960482337843),27.13960482337843,56.06282678889619,6974289454.886,3668883838.441208,300309250.22983265,10943482543.557041
port237,Chester_U.S.A.,USA,POINT (-75.34091923593303 39.852882198627775),39.852882198627775,-75.34091923593303,6967133179.750532,8358197330.105953,4545175104.013596,19870505613.87008
port38,Altamira_Mexico,MEX,POINT (-97.88500211589354 22.484096017261084),22.484096017261084,-97.88500211589354,6946472019.209367,6956994340.495607,51301308.79770153,13954767668.502676
port986,Port of Rouen_France,FRA,POINT (1.043595854087782 49.39775459979332),49.39775459979332,1.043595854087782,6837271692.031119,5801095158.83303,20972855.94641151,12659339706.81056
port1416,Yokkaichi_Japan,JPN,POINT (136.65630831194952 34.97134904117626),34.97134904117626,136.65630831194952,6770403308.338136,10966141870.17257,7814045338.697319,25550590517.208023
port881,Panjang_Indonesia,IDN,POINT (105.33017165074907 -5.493013574136457),-5.493013574136457,105.33017165074907,6761307962.645279,1886087205.8930442,72399133.63876249,8719794302.177086
port309,Dumai_Indonesia,IDN,POINT (101.41882354750305 1.7173885039406775),1.7173885039406775,101.41882354750305,6739737233.975486,1709687573.0197659,340174962.3438054,8789599769.339058
port184,Buenos Aires_Argentina,ARG,POINT (-58.35237171266093 -34.61975015240211),-34.61975015240211,-58.35237171266093,6715352255.205569,5880540658.566917,2025075291.678515,14620968205.451002
port391,Geraldton_Australia,AUS,POINT (114.59419328868513 -28.776094489539258),-28.776094489539258,114.59419328868513,6674198810.0172615,529081104.06416804,20822709.60115662,7224102623.682586
port1279,Teesport_United Kingdom,GBR,POINT (-1.149996819027746 54.60371826812135),54.60371826812135,-1.149996819027746,6661679606.935863,11228517512.417156,127679999.05955932,18017877118.41258
port263,Coronei_Chile,CHL,POINT (-73.16219887909149 -37.025469173310185),-37.025469173310185,-73.16219887909149,6612804074.098791,1450401150.2878175,100546617.88757615,8163751842.274184
port25,Al Kuwayt_Kuwait,KWT,POINT (47.923896774914404 29.352105878846753),29.352105878846753,47.923896774914404,6604122571.203676,1663154257.1030438,3533988.3775972356,8270810816.684317
port846,Oita Ko_Japan,JPN,POINT (131.68581247405322 33.25922967370367),33.25922967370367,131.68581247405322,6534823488.597955,12151353699.966724,224190714.29258487,18910367902.85726
port224,Cebu_Philippines,PHL,POINT (123.93695341707495 10.31413031775281),10.31413031775281,123.93695341707495,6506896608.362994,13583524685.196297,387216472.3159193,20477637765.87521
port1318,Trieste_Italy,ITA,POINT (13.78983719988008 45.622626464351534),45.622626464351534,13.78983719988008,6422061745.276706,9029240978.15495,1884823476.4390144,17336126199.87067
port805,Nemrut Limani Bay_Turkey,TUR,POINT (26.931504806236944 38.75643772970834),38.75643772970834,26.931504806236944,6310716712.179007,5434577703.945948,3863248772.2869825,15608543188.411938
port577,Kirteh Oil Terminal_Malaysia,MYS,POINT (103.45283402725063 4.5746182962108675),4.5746182962108675,103.45283402725063,6258378154.247122,610550593.1757826,0.0,6868928747.422904
port1104,Rio Grande_Brazil,BRA,POINT (-52.10246585695944 -32.08860546467826),-32.08860546467826,-52.10246585695944,6251284662.873332,4545408362.660331,1075988568.8963122,11872681594.429976
port293,Djen-Djen_Algeria,DZA,POINT (5.886895265191487 36.82059244730151),36.82059244730151,5.886895265191487,6249581464.701001,432998044.60518765,0.0,6682579509.306189
port489,Illichivsk_Ukraine,UKR,POINT (30.656566222694067 46.33159947473917),46.33159947473917,30.656566222694067,6238503638.055694,3008457311.2221093,17107737.813312184,9264068687.091116
port192,Bur Said (Port Said)_Egypt,EGY,POINT (32.30771942243283 31.249586292483176),31.249586292483176,32.30771942243283,6211136000.275606,11454251671.780666,5180013452.157656,22845401124.21393
port174,Brisbane_Australia,AUS,POINT (153.14558323614085 -27.40850097251321),-27.40850097251321,153.14558323614085,6201223783.958433,22586249714.68541,22629883972.511658,51417357471.1555
port1070,Qingdao Port_China,CHN,POINT (119.7632780425881 35.60931762904352),35.60931762904352,119.7632780425881,6193938383.265501,17216167955.80874,26717268.724340543,23436823607.798584
port1071,Qingzhou_China,CHN,POINT (108.63832256652277 21.678767844069043),21.678767844069043,108.63832256652277,6171474392.363022,10886313359.4077,32290052.71602913,17090077804.48675
port239,Chiba Ko_Japan,JPN,POINT (140.05233918787292 35.52513991618921),35.52513991618921,140.05233918787292,6125917678.796642,20097718114.920338,2782419807.6175437,29006055601.334522
port432,Gwangyang Hang_South Korea,KOR,POINT (127.71655329835137 34.876697162565),34.876697162565,127.71655329835137,5983515532.662476,12542348466.303314,227474571.05118793,18753338570.01698
port468,Hitachi_Japan,JPN,POINT (140.61582820359354 36.45195306038733),36.45195306038733,140.61582820359354,5962371057.037771,4021967162.0125303,2271539496.2920337,12255877715.342335
port493,Immingham_United Kingdom,GBR,POINT (-0.2262760654877171 53.64188520539394),53.64188520539394,-0.22627606548771706,5874384929.909301,9434827683.987482,40378975.49807156,15349591589.394854
port908,Piraievs_Greece,GRC,POINT (23.603746770045078 37.95244596525885),37.95244596525885,23.603746770045078,5868134415.351591,11996192055.346888,118374786583.23392,136239113053.9324
port193,Burgas_Bulgaria,BGR,POINT (27.482266275708785 42.46948481439915),42.46948481439915,27.482266275708785,5835480553.985193,9854293155.943602,19486320696.99391,35176094406.92271
port653,Lisboa_Portugal,PRT,POINT (-9.120570468820851 38.6778905813299),38.6778905813299,-9.120570468820851,5810483077.385373,5738867347.387185,1680060165.325118,13229410590.097675
port426,Guayaquil_Ecuador,ECU,POINT (-79.91891511541813 -2.2611456684150415),-2.2611456684150415,-79.91891511541813,5789671751.73046,7729261756.39339,8103306251.44192,21622239759.56577
port56,Antofagasta_Chile,CHL,POINT (-70.4048979191415 -23.6509440933457),-23.6509440933457,-70.4048979191415,5788936352.195373,2182054974.71954,882589.9365945191,7971873916.851508
port523,Johor_Malaysia,MYS,POINT (103.91990420193116 1.4574505346135187),1.4574505346135187,103.91990420193116,5760691458.272501,2424544544.4646955,471643356.2198681,8656879358.957064
port1284,Terneuzen_Netherlands,NLD,POINT (3.8132100776784132 51.31267679308905),51.31267679308905,3.8132100776784132,5740666331.156377,8792413736.935507,2643144508.9452825,17176224577.037167
port1100,Riga_Latvia,LVA,POINT (24.086620974503003 57.018064951997204),57.018064951997204,24.086620974503003,5731106430.770105,2336418910.3461175,2312708.9830340734,8069838050.0992565
port1419,Yuzhnyy_Ukraine,UKR,POINT (31.018057423800393 46.63334720650587),46.63334720650587,31.018057423800393,5709859616.501521,1532491444.4147873,64439322.355829485,7306790383.272138
port323,Emden_Germany,DEU,POINT (7.183700069745903 53.345804517554434),53.345804517554434,7.183700069745903,5698903357.891754,2565677449.3022785,28890972.687814135,8293471779.881846
port1146,San Pedro_Cote d'Ivoire,CIV,POINT (-6.6186544524427235 4.744742838226502),4.744742838226502,-6.6186544524427235,5686092331.211686,904127564.118673,19145122.48005572,6609365017.810415
port361,Fremantle_Australia,AUS,POINT (115.77052416812684 -32.152032519524546),-32.152032519524546,115.77052416812684,5659298820.076877,11587095295.577705,4709026091.3178425,21955420206.972427
port764,Montevideo_Uruguay,URY,POINT (-56.213812999128415 -34.888090740875846),-34.888090740875846,-56.213812999128415,5633338111.98517,3536110997.5149703,1124997364.602363,10294446474.102505
port463,Higashi-Harima_Japan,JPN,POINT (134.81346927964285 34.730680833545804),34.730680833545804,134.81346927964285,5598765882.374297,7442946028.075676,749374.2968750655,13042461284.74685
port532,Kalundborg_Denmark,DNK,POINT (11.100603982134244 55.665867465647246),55.665867465647246,11.100603982134244,5584291229.635949,8052251640.948912,2203648579.8880424,15840191450.472904
port378,Gavan Vysotsk_Russia,RUS,POINT (28.563398252833014 60.603922231518375),60.603922231518375,28.563398252833014,5560540497.034128,558923234.3183798,58280303.806235395,6177744035.158743
port1341,Umm Qasr_Iraq,IRQ,POINT (47.90182167883439 30.113784502375854),30.113784502375854,47.90182167883439,5545434384.729421,3800930827.539271,533800163.6706891,9880165375.93938
port1092,Rauma_Finland,FIN,POINT (21.460927625352834 61.121132890182615),61.121132890182615,21.460927625352834,5539242196.061169,1246489729.3234656,664454307.9490224,7450186233.333656
port838,Nynashamn_Sweden,SWE,POINT (17.962553644208263 58.916430727386555),58.916430727386555,17.962553644208263,5538064051.324131,7109248329.524624,178569637.96088472,12825882018.809639
port1363,Vigo_Spain,ESP,POINT (-8.723487947305248 42.241493262116734),42.241493262116734,-8.723487947305248,5493233502.863909,2424301184.706188,2097423593.022848,10014958280.592945
port1103,Rio De Janeiro_Brazil,BRA,POINT (-43.19949003445482 -22.882676731172445),-22.882676731172445,-43.19949003445482,5461526566.812406,8834886617.043072,8805518657.519627,23101931841.375103
port540,Kandla_India,IND,POINT (70.21565487207272 23.00911919866315),23.00911919866315,70.21565487207272,5381876822.56362,7249566115.901496,32689059.935358908,12664131998.400473
port888,Pascagoula_U.S.A.,USA,POINT (-88.52197837353293 30.34688292732757),30.34688292732757,-88.52197837353293,5337997528.9764185,5195884078.377728,811116880.8437688,11344998488.197916
port1370,Vlissingen_Netherlands,NLD,POINT (3.6957797372233476 51.45611530350443),51.45611530350443,3.6957797372233476,5296967580.412165,7859721533.463669,4176924605.9686065,17333613719.84444
port1028,Puerto Bolivar_Ecuador,ECU,POINT (-79.99877388311246 -3.259294792105495),-3.259294792105495,-79.99877388311246,5277883934.995877,834806702.4413979,423980810.31949186,6536671447.756767
port818,Newport News_U.S.A.,USA,POINT (-76.43537097591263 36.98386610273203),36.98386610273203,-76.43537097591263,5250761188.411421,674950701.8472725,1702785.3303447382,5927414675.589039
port275,Damman_Saudi Arabia,SAU,POINT (50.194397147158526 26.47626701122541),26.47626701122541,50.194397147158526,5248828056.454019,12798223510.097416,119917838.59226644,18166969405.1437
port517,Jiangyin_China,CHN,POINT (120.15934072222991 31.932403847897216),31.932403847897216,120.15934072222991,5241265101.144289,24186527577.54777,8684246.940647429,29436476925.63271
port702,Maputo_Mozambique,MOZ,POINT (32.521037983851215 -25.955630874618056),-25.955630874618056,32.521037983851215,5223792783.648187,3121397188.989855,15418045.261853036,8360608017.899895
port626,Lagos_Nigeria,NGA,POINT (3.334134321082994 6.4473370004515695),6.4473370004515695,3.334134321082994,5223153030.69666,16067219704.6457,1822591106.0514977,23112963841.39386
port51,Andres (Andres LGN Terminal)_Dominican Republic,DOM,POINT (-69.63329977621136 18.418852961891666),18.418852961891666,-69.63329977621136,5218416903.950038,7677569409.398346,5283263157.711551,18179249471.059937
port1260,Tampico_Mexico,MEX,POINT (-97.82483356061508 22.249809753048027),22.249809753048027,-97.82483356061508,5149884060.248395,1810314821.5557804,459703975.9831204,7419902857.787295
port487,Ijmuiden_Netherlands,NLD,POINT (4.6172782557423755 52.47671568670087),52.47671568670087,4.6172782557423755,5144087801.860298,5882198814.778187,247084083.98547873,11273370700.623964
port183,Buenaventura_Colombia,COL,POINT (-77.06649613467158 3.8943885656037103),3.8943885656037103,-77.06649613467158,5083768138.247599,13734938644.887598,850782073.3128438,19669488856.44804
port1357,Ventspils_Latvia,LVA,POINT (21.577057465898903 57.40540163840601),57.40540163840601,21.577057465898903,5074384029.873927,3763153722.9376535,35890364.7801091,8873428117.59169
port901,Philadelphia_U.S.A.,USA,POINT (-75.13753909832485 39.90437716815828),39.90437716815828,-75.13753909832485,5070417708.702126,21641227767.178493,2771409417.3609405,29483054893.241558
port219,Cartagena_Spain,ESP,POINT (-0.945398356705371 37.57548974049472),37.57548974049472,-0.945398356705371,5049600659.275909,10342915544.318054,4796702647.859632,20189218851.453594
port1280,Tekirdag_Turkey,TUR,POINT (27.486870725738186 40.93188862784761),40.93188862784761,27.486870725738186,5022863006.787299,7045044372.691313,8938296295.237637,21006203674.716248
port779,Murmansk_Russia,RUS,POINT (33.04900269829869 68.98887419161231),68.98887419161231,33.04900269829869,4975850224.030186,833635276.0485766,42960601.39933495,5852446101.478097
port1360,Victoria_Malaysia,MYS,POINT (115.2377076692979 5.259428749516543),5.259428749516543,115.2377076692979,4956919565.351627,3608540211.613822,1231459.9355892858,8566691236.901038
port1155,Santander_Spain,ESP,POINT (-3.821288327093163 43.42618793458138),43.42618793458138,-3.821288327093163,4942319498.09137,2180791274.314102,41053433.1115028,7164164205.516974
port864,Oslo_Norway,NOR,POINT (10.74298650669995 59.89670371556146),59.89670371556146,10.74298650669995,4942010458.869657,7653672044.839669,470674626.9998146,13066357130.70914
port306,Dubayy_United Arab Emirates,ARE,POINT (55.29082099846359 25.273373623758204),25.273373623758204,55.29082099846359,4937872846.970126,292585844.0657755,13583281549.632835,18813740240.66874
port685,Malabo_Equatorial Guinea,GNQ,POINT (8.734459388136063 3.7695239722063842),3.7695239722063842,8.734459388136063,4918079958.227112,573997023.0612892,6765607879.0006485,12257684860.28905
port373,Galveston_U.S.A.,USA,POINT (-94.80456984576391 29.30976119320005),29.30976119320005,-94.80456984576391,4881892494.598069,2508706162.6592207,283298197.711441,7673896854.968731
port787,Nakhodka_Russia,RUS,POINT (132.88733892658686 42.80369016691854),42.80369016691854,132.88733892658686,4860419734.63119,117854411.65234831,14870299.226826467,4993144445.5103655
port1418,Yokosuka Ko_Japan,JPN,POINT (139.6535592154108 35.32099664063071),35.32099664063071,139.6535592154108,4858985003.504758,2490974181.2756257,266227602.88020748,7616186787.660591
port161,Botany Bay_Australia,AUS,POINT (151.2158951934467 -33.98153450901857),-33.98153450901857,151.2158951934467,4806302002.122313,48013620554.26447,12946263507.000015,65766186063.3868
port494,Inchon_South Korea,KOR,POINT (126.62008235060642 37.44435778450925),37.44435778450925,126.62008235060642,4789001270.566638,24054225496.709343,746004039.065901,29589230806.341885
port319,El Jorf Lasfar_Morocco,MAR,POINT (-8.609401597566807 33.11351890616566),33.11351890616566,-8.609401597566807,4753283571.808447,6072145914.974087,91244.57923582515,10825520731.361769
port1381,Walvis Bay_Namibia,NAM,POINT (14.489506206461746 -22.95358267934519),-22.95358267934519,14.489506206461746,4752930169.372007,2574658196.928636,6068467405.924757,13396055772.2254
port102,Balikpapa_Indonesia,IDN,POINT (116.79597995074931 -1.202534485771115),-1.202534485771115,116.79597995074931,4746443034.42911,3995915507.8285575,169513455.102261,8911871997.359928
port973,Port Owendo_Gabon,GAB,POINT (9.499877013129524 0.2972698238458409),0.29726982384584094,9.499877013129524,4704846288.250819,614330792.8654372,16691321.3974135,5335868402.51367
port1015,Porvoo_Finland,FIN,POINT (25.53603861196135 60.31212422462844),60.31212422462844,25.53603861196135,4691511976.515173,4224206589.3060794,1448821157.5473504,10364539723.368603
port354,Fredericia_Denmark,DNK,POINT (9.746943976209499 55.55789495739138),55.55789495739138,9.746943976209499,4673929991.11182,4279785439.938035,220739302.69111666,9174454733.74097
port1128,Sakai-Senboku_Japan,JPN,POINT (135.42238149129432 34.55784019671662),34.55784019671662,135.42238149129432,4621757017.715522,11821964468.223402,5685696868.49374,22129418354.432663
port175,Brofjorden_Sweden,SWE,POINT (11.425689144516953 58.34819267239734),58.34819267239734,11.425689144516953,4605930651.391269,4711035819.060732,2102609595.0212913,11419576065.473291
port88,Bahia De Matarani_Peru,PER,POINT (-72.10778779112583 -17.004633413175803),-17.004633413175803,-72.10778779112583,4598567044.784113,822761577.9555856,2589022.7571675964,5423917645.496866
port1047,Puerto Ilo_Peru,PER,POINT (-71.3576876233676 -17.61873150510724),-17.61873150510724,-71.3576876233676,4528277634.028736,3287150881.176736,259351580.6196361,8074780095.825109
port1374,Vostochnyy_Russia,RUS,POINT (133.05283576623467 42.73190378305415),42.73190378305415,133.05283576623467,4526632639.8267,1225698523.9026666,450970314.8105115,6203301478.539878
port1075,Quebec_Canada,CAN,POINT (-71.20615814982528 46.79533437486303),46.79533437486303,-71.20615814982528,4491980318.747854,5870764654.120276,1054707960.7521071,11417452933.620237
port765,Montoir_France,FRA,POINT (-2.128279075982695 47.302700732031),47.302700732031,-2.128279075982695,4479479196.934381,6216997629.916403,1182750106.903992,11879226933.754776
port259,Conchan Oil Terminal_Peru,PER,POINT (-76.926783415688 -12.248992400455338),-12.248992400455338,-76.926783415688,4479182437.1557045,4164464024.436309,152098329.39991367,8795744790.991928
port915,Pohang_South Korea,KOR,POINT (129.40873483275405 36.03523851622592),36.03523851622592,129.40873483275405,4450141998.054197,20847949654.396297,48073.59613914683,25298139726.04663
port435,Haifa_Israel,ISR,POINT (35.03502309809758 32.81051126566313),32.81051126566313,35.03502309809758,4416828736.20142,9658149601.572449,96881222.26010552,14171859560.033974
port966,Port Lyttelton_New Zealand,NZL,POINT (172.72402934070848 -43.6067476728045),-43.6067476728045,172.72402934070848,4410177529.482167,3652301544.407753,225419834.89467153,8287898908.784592
port466,Hiroshima_Japan,JPN,POINT (132.45577508201796 34.3474465774322),34.3474465774322,132.45577508201796,4404607177.346073,4218055336.6522627,2371425102.8326445,10994087616.830982
port1429,Zhoushan_China,CHN,POINT (122.10083683209919 30.056350318656218),30.056350318656218,122.10083683209919,4388518327.315433,6485012395.6559105,430314807.9263665,11303845530.89771
port91,Bahia San Nicolas_Peru,PER,POINT (-75.2394926674042 -15.258178768541931),-15.258178768541931,-75.2394926674042,4377847708.232825,43515910.104605615,0.0,4421363618.337431
port1399,"Wilmington, NC_U.S.A.",USA,POINT (-77.95014842805263 34.205147129406036),34.205147129406036,-77.95014842805263,4377684921.282255,7327261208.58625,849103559.4027342,12554049689.27124
port851,Onne_Nigeria,NGA,POINT (7.158459416672777 4.688025553488681),4.688025553488681,7.158459416672777,4310556786.552418,3064923725.2621975,99467044.96610877,7474947556.780724
port235,Chennai (Madras)_India,IND,POINT (80.2942507382557 13.10046724124775),13.10046724124775,80.2942507382557,4244240260.885768,11804263710.985117,4156706791.1826463,20205210763.05353
port679,Magdalla_India,IND,POINT (72.67743533122422 21.134292140601822),21.134292140601822,72.67743533122422,4196624056.5178585,17264072170.707638,56469912.476705894,21517166139.7022
port1241,Swanport_U.S.A.,USA,POINT (-146.38360337450882 61.08345855738029),61.08345855738029,-146.38360337450882,4171289476.0434313,87196868.93320107,187653155.85871047,4446139500.835342
port537,Kanazawa_Japan,JPN,POINT (136.6143047443885 36.616539033500665),36.616539033500665,136.6143047443885,4171211007.1347404,1376016179.5231462,421190564.2620166,5968417750.919903
port555,Kawasaki Ko_Japan,JPN,POINT (139.74847050240137 35.50702516990109),35.50702516990109,139.74847050240137,4167812054.272619,11852137781.636011,317817531.2498655,16337767367.158495
port729,Melbourne_Australia,AUS,POINT (144.91755968326098 -37.82817815890304),-37.82817815890304,144.91755968326098,4154342942.562452,29277490845.80191,5391623678.305517,38823457466.669876
port701,Map Ta Phut_Thailand,THA,POINT (101.14215133564011 12.685713747208547),12.685713747208547,101.14215133564011,4137136453.092212,19381137233.349636,1210322.7260181208,23519484009.167866
port681,Mailiao_Taiwan,TWN,POINT (120.19594041181162 23.791485474791703),23.791485474791703,120.19594041181162,4119098453.382064,7704298255.704421,0.0,11823396709.086485
port2,Aberdeen_U.S.A.,USA,POINT (-123.84775248396487 46.96598222694922),46.96598222694922,-123.84775248396487,4112653001.4107494,1009989258.7962084,0.0,5122642260.206958
port140,Belem_Brazil,BRA,POINT (-48.65985859706124 -1.5006902145017782),-1.5006902145017782,-48.65985859706124,4089711693.6780915,1862532462.5896084,5046338.0617076475,5957290494.329408
port1165,Sapele_Nigeria,NGA,POINT (5.647356031176507 5.921430708974314),5.921430708974314,5.647356031176507,4040991181.4918475,1623607073.1606321,1651039.8037160835,5666249294.456195
port970,Port Moresby_Papua New Guinea,PNG,POINT (147.08453370797847 -9.400125205998156),-9.400125205998156,147.08453370797847,4031682417.211189,816523795.3961017,924432482.1910702,5772638694.798361
port299,Douala_Cameroon,CMR,POINT (9.683368801434446 4.0528808646156484),4.0528808646156484,9.683368801434446,4016267506.010184,2090687574.1158595,1054308.5111328063,6108009388.6371765
port1041,Puerto De Garrucha_Spain,ESP,POINT (-1.8178599860208609 37.182310333252545),37.182310333252545,-1.8178599860208609,4008201578.741586,33331390.646830194,7521375.43643,4049054344.8248463
port635,Las Palmas_Spain,ESP,POINT (-15.411361321818424 28.1480498490916),28.1480498490916,-15.411361321818424,3977813912.395226,9577455782.79592,22916890767.623463,36472160462.814606
port1027,Puerto Bolivar_Colombia,COL,POINT (-71.9625703096812 12.250280347696615),12.250280347696615,-71.9625703096812,3957253744.751266,36334959.22703422,274078.0672474181,3993862782.0455475
port1255,Takoradi_Ghana,GHA,POINT (-1.7419344206991512 4.891730058849944),4.891730058849944,-1.7419344206991512,3951683416.40334,2506717195.132052,191316.31029542745,6458591927.845687
port1326,Tuapse_Russia,RUS,POINT (39.08508650861091 44.099332652900905),44.099332652900905,39.08508650861091,3913311092.066965,480011091.501789,33049207.33913791,4426371390.907892
port351,Fos_France,FRA,POINT (4.887000028740862 43.437564896174734),43.437564896174734,4.887000028740862,3894036401.987032,11126727413.28453,337287812.911168,15358051628.18273
port218,Cartagena_Colombia,COL,POINT (-75.51291157787148 10.335006021988931),10.335006021988931,-75.51291157787148,3862529233.977273,14052539867.009893,17209146739.66173,35124215840.648895
port617,La Coruna_Spain,ESP,POINT (-8.45319636502657 43.34262512954117),43.34262512954117,-8.45319636502657,3835148894.873036,8559560939.101871,1474849496.8753285,13869559330.850235
port795,Napoli_Italy,ITA,POINT (14.278908552403157 40.83924659036693),40.83924659036693,14.278908552403157,3831446336.7464237,4998020314.235459,8502411432.602522,17331878083.584404
port92,Bahia San Vicente_Chile,CHL,POINT (-73.12199870128266 -36.7428769892689),-36.7428769892689,-73.12199870128266,3791642934.6513653,1491425086.8355217,1960026951.1895874,7243094972.676475
port720,Matsuyama_Japan,JPN,POINT (132.69909955223787 33.81872817211092),33.81872817211092,132.69909955223787,3786634478.6251,4439616213.672608,56929202.967943475,8283179895.265652
port4,Abidjan_Cote d'Ivoire,CIV,POINT (-4.010908317124335 5.2839562225326215),5.2839562225326215,-4.010908317124335,3757537870.743407,5719056375.826454,107437571.603131,9584031818.17299
port823,Niihama_Japan,JPN,POINT (133.21853039791554 33.95565622796276),33.95565622796276,133.21853039791554,3755781818.9862,1828861343.4128358,2809318.905853628,5587452481.304889
port1012,Portocel_Brazil,BRA,POINT (-40.058091378983576 -19.839510402561842),-19.839510402561842,-40.058091378983576,3748704876.217269,401193510.6515235,741783456.7562591,4891681843.6250515
port442,Haldia Port_India,IND,POINT (88.10419444174183 22.057790602317784),22.057790602317784,88.10419444174183,3729470861.543587,3743486081.7883983,1487822.6053173568,7474444765.937303
port190,Bunbury_Australia,AUS,POINT (115.66453747206657 -33.322300045531605),-33.322300045531605,115.66453747206657,3709592291.785768,927251845.8929806,182624211.44053218,4819468349.119281
port375,Gaogang_China,CHN,POINT (119.81110088470822 32.313467336662946),32.313467336662946,119.81110088470822,3702245461.662325,2783075348.48783,89837973.30232495,6575158783.45248
port41,Amamapare_Indonesia,IDN,POINT (136.80309025069434 -4.806828832153477),-4.806828832153477,136.80309025069434,3682007894.4005656,2312377014.5419526,1008824.8997151725,5995393733.842234
port1409,Yangpu_China,CHN,POINT (109.17589469116162 19.767375796387256),19.767375796387256,109.17589469116162,3669114428.8027983,2878194687.1563406,510843547.4889747,7058152663.448113
port179,Brunsbuttel Elbahafen_Germany,DEU,POINT (9.185432327426682 53.90367488220769),53.90367488220769,9.185432327426682,3662038346.19827,3987799665.3158994,65991537.04077376,7715829548.554943
port285,Delfzijl_Netherlands,NLD,POINT (6.964153498468105 53.31497834636717),53.31497834636717,6.964153498468105,3620817415.725474,2400698254.152201,271514968.7754912,6293030638.653166
port597,Kotka_Finland,FIN,POINT (26.926442036908348 60.46241713001803),60.46241713001803,26.926442036908348,3602617827.860044,1291524692.7711143,104848679.87987679,4998991200.511036
port326,Ensenada_Mexico,MEX,POINT (-116.62459926143812 31.849564665244007),31.849564665244007,-116.62459926143812,3584668841.6503224,6211147586.0473995,240633453.33681512,10036449881.034536
port1315,Townsville_Australia,AUS,POINT (146.83641161719981 -19.25646587785041),-19.25646587785041,146.83641161719981,3569571829.535411,3794523440.5699215,1054357323.0596856,8418452593.165018
port455,Harmac_Canada,CAN,POINT (-123.8657233386048 49.1410403104077),49.1410403104077,-123.8657233386048,3557587580.6574183,119526364.32860826,13624.5339467298,3677127569.519973
port465,Himeji_Japan,JPN,POINT (134.63785896788627 34.7757991513156),34.7757991513156,134.63785896788627,3553233973.503023,6990074129.011557,422717436.7526032,10966025539.267183
port1184,Setubal_Portugal,PRT,POINT (-8.842115097892272 38.49997283008241),38.49997283008241,-8.842115097892272,3543878350.976042,2075529146.6938915,1514697609.6876745,7134105107.357608
port1415,Yingkou_China,CHN,POINT (122.04297058358812 40.72688954339104),40.72688954339104,122.04297058358812,3526337160.1461725,2974578766.7289433,12175071.211488487,6513090998.086605
port1179,Semarang_Indonesia,IDN,POINT (110.42412864005829 -6.949628052109301),-6.949628052109301,110.42412864005829,3472454582.5474634,3231143119.2213707,94704947.80661415,6798302649.575448
port1367,Vishakhapatnam_India,IND,POINT (83.23140922275357 17.655450473013627),17.655450473013627,83.23140922275357,3467433480.202153,11089278288.99354,150175139.4149339,14706886908.610628
port339,Fang-Cheng_China,CHN,POINT (108.36433932071556 21.614205337319703),21.614205337319703,108.36433932071556,3462603331.669452,16427572290.24195,0.0,19890175621.9114
port90,Bahia Quintero (Ventanas)_Chile,CHL,POINT (-71.48395103962916 -32.766963132610016),-32.766963132610016,-71.48395103962916,3450795863.248112,1872577593.9673138,100133359.59064144,5423506816.8060665
port1275,Taranto_Italy,ITA,POINT (17.190390455832556 40.500435672175534),40.500435672175534,17.190390455832556,3440745498.9680567,2995256535.5288215,5549581.0579300895,6441551615.554808
port1112,Rostov-Na-Donu_Russia,RUS,POINT (39.679375268293484 47.19478381922971),47.19478381922971,39.679375268293484,3410249807.481012,212503160.19353122,779753197.5250288,4402506165.199572
port1082,Rada De Arica_Chile,CHL,POINT (-70.32285518739951 -18.473348154866017),-18.473348154866017,-70.32285518739951,3398090983.0330377,3844650684.9574814,1004271188.3466483,8247012856.337167
port440,Hakodate Ko_Japan,JPN,POINT (140.69824466061647 41.79882812831512),41.79882812831512,140.69824466061647,3389541720.5463147,553358728.7506864,347796.6371569106,3943248245.934158
port125,Batangas City_Philippines,PHL,POINT (121.02391729422052 13.744770919004338),13.744770919004338,121.02391729422052,3376772908.1133447,6993078482.180878,1979826831.8806863,12349678222.174908
port315,East London_South Africa,ZAF,POINT (27.900881035206123 -33.02810635632081),-33.02810635632081,27.900881035206123,3357442185.9210644,2214829902.0891767,976991017.547748,6549263105.557988
port1327,Tuban_Indonesia,IDN,POINT (111.90125866892342 -6.804486659766159),-6.804486659766159,111.90125866892342,3351772962.1199965,2086948937.2847648,214736125.0603119,5653458024.465074
port892,Pelabuhan Sungai Udang_Malaysia,MYS,POINT (102.13579746630838 2.2636270138617305),2.2636270138617305,102.13579746630838,3347271163.1073413,764353944.6591313,277248234.9622774,4388873342.72875
port527,Kaba Burnu_Turkey,TUR,POINT (29.544515270102337 40.766564651085766),40.766564651085766,29.544515270102337,3345326022.759091,9147569952.224468,3444777822.167102,15937673797.150661
port1335,Ube Ko_Japan,JPN,POINT (131.21318379857794 33.94487467392668),33.94487467392668,131.21318379857794,3343807742.7900505,2895683275.5206304,40305185.195246644,6279796203.505927
port284,Degrad Des Cannes_French Guiana,GUF,POINT (-52.275230143183016 4.8571076673490285),4.8571076673490285,-52.275230143183016,3343480064.257255,2684587532.4319134,87858546.28440586,6115926142.973575
port270,Daesan Hang_South Korea,KOR,POINT (126.40367278117384 37.01322693846365),37.01322693846365,126.40367278117384,3343283835.6702166,8801859871.108185,39241210.87911852,12184384917.657518
port385,Gemlik_Turkey,TUR,POINT (29.103480035024777 40.41272034564045),40.41272034564045,29.103480035024777,3339837792.3014016,3055772923.397266,11614681583.438427,18010292299.137093
port1073,Qiwei_China,CHN,POINT (120.61762420472098 31.998317562579835),31.998317562579835,120.61762420472098,3322461804.941624,10806768239.224358,458043.3372494986,14129688087.503231
port505,Itajai_Brazil,BRA,POINT (-48.66739362744734 -26.893917223622278),-26.893917223622278,-48.66739362744734,3286884007.3852453,7152925733.471537,5788374591.60514,16228184332.461922
port1281,Teluk Bayur_Indonesia,IDN,POINT (100.38800344071983 -1.021178175282665),-1.021178175282665,100.38800344071983,3279420835.413501,1162145641.8548694,54646308.479373686,4496212785.747744
port477,Hopa_Turkey,TUR,POINT (41.430800328423885 41.41066171185562),41.41066171185562,41.430800328423885,3275854393.868655,1848139818.5140347,781175.2732768178,5124775387.655968
port376,Garlston_United Kingdom,GBR,POINT (-2.8930672139858937 53.29145841460292),53.29145841460292,-2.8930672139858937,3270971412.5748305,1221614005.8793018,194044763.78101647,4686630182.235148
port287,Derince Burnu_Turkey,TUR,POINT (29.779919162858928 40.758246773949274),40.758246773949274,29.779919162858928,3268692795.055736,5709790252.354656,13855988303.932364,22834471351.34276
port920,Point Richmond_U.S.A.,USA,POINT (-122.37709303393753 37.92353428166407),37.92353428166407,-122.37709303393753,3244283536.503975,10403449545.870428,558387346.18193,14206120428.556334
port711,Marsaxlokk_Malta,MLT,POINT (14.537961688242202 35.8216340000224),35.8216340000224,14.537961688242202,3191294936.7511163,10170189908.057545,109645705481.78476,123007190326.59341
port1259,Tampa_U.S.A.,USA,POINT (-82.41979138966131 27.898340749725676),27.898340749725676,-82.41979138966131,3167585813.1566644,4493493773.580804,4632579856.7040825,12293659443.441551
port84,Avonmouth_United Kingdom,GBR,POINT (-2.708767368142706 51.498120816550205),51.498120816550205,-2.708767368142706,3161569211.7921515,7445190903.685267,110035499.43877411,10716795614.916193
port483,Huelva_Spain,ESP,POINT (-6.914657869368037 37.1931289090272),37.1931289090272,-6.914657869368037,3148956009.4799986,3762040509.5030503,3882882615.9158664,10793879134.898916
port1200,Sines_Portugal,PRT,POINT (-8.830416370244496 37.95680932412149),37.95680932412149,-8.830416370244496,3147972892.1033864,3395656998.74719,25417317387.786892,31960947278.637466
port1295,Thunder Bay_Canada,CAN,POINT (-89.24340302135263 48.3841792968307),48.3841792968307,-89.24340302135263,3142473490.4596324,128368978.12417096,603624328.7640603,3874466797.347863
port657,Lome_Toga,TGO,POINT (1.2827089542348369 6.144824676404431),6.144824676404431,1.2827089542348369,3118790976.051619,7911524070.305251,6930372687.681001,17960687734.037872
port203,Cagliari_Italy,ITA,POINT (9.08468701930715 39.23143382756004),39.23143382756004,9.08468701930715,3103822597.4850993,2817798910.1679735,88080929.32431865,6009702436.977391
port1270,Tanjung Sangata_Indonesia,IDN,POINT (117.64283561896384 0.5349948572798172),0.5349948572798172,117.64283561896384,3083797413.5518565,404529997.4469259,0.0,3488327410.998782
port620,La Pallice_France,FRA,POINT (-1.2133591716202408 46.160139162205),46.160139162205,-1.2133591716202408,3057045019.2403555,5108469921.366383,231916124.07993555,8397431064.686674
port784,Nacala_Mozambique,MOZ,POINT (40.65118404225086 -14.535350585499362),-14.535350585499362,40.65118404225086,3055853118.4660277,1259165420.3450499,131753360.1676775,4446771898.978755
port700,Manzanillo_Panama,PAN,POINT (-79.88215480872702 9.367894426810736),9.367894426810736,-79.88215480872702,3026254613.1271114,14324817426.265728,75797184846.02167,93148256885.4145
port415,Grangemouth_United Kingdom,GBR,POINT (-3.68961592394568 56.02124607713708),56.02124607713708,-3.68961592394568,3004475290.906019,3465492060.960548,320772945.2555138,6790740297.122082
port828,North Ain Sukhna Port_Egypt,EGY,POINT (32.353921591133314 29.647428818238886),29.647428818238886,32.353921591133314,3000661612.314066,6873526330.714476,423480757.956619,10297668700.98516
port1388,Wellington_New Zealand,NZL,POINT (174.83047377307264 -41.25688928779923),-41.25688928779923,174.83047377307264,2989983461.2404213,2264392929.245771,159792444.86011425,5414168835.346307
port1057,Puerto Quetzal_Guatemala,GTM,POINT (-90.79003767256297 13.92640929366596),13.92640929366596,-90.79003767256297,2971599287.837411,5781974972.824941,1066588645.4137046,9820162906.076056
port1387,Weipa_Australia,AUS,POINT (141.87647667594274 -12.653880095999757),-12.653880095999757,141.87647667594274,2940924080.162528,43522560.65421056,5828477.015987895,2990275117.8327265
port1231,Stura_Norway,NOR,POINT (4.865804810410851 60.593557079243176),60.593557079243176,4.865804810410851,2914027002.2001276,1285542299.362992,96033015.20713787,4295602316.770258
port1253,Taicang_China,CHN,POINT (121.1376159719744 31.687515747280568),31.687515747280568,121.1376159719744,2913588215.6409307,7387997288.696857,166468399.29708776,10468053903.634876
port1228,Stockholm_Sweden,SWE,POINT (18.105988962518612 59.329205191082885),59.329205191082885,18.105988962518612,2910181238.0680633,3215436938.457954,156870934.13246837,6282489110.658485
port1213,Sousse_Tunisia,TUN,POINT (10.645081584500959 35.824512813305994),35.824512813305994,10.645081584500959,2907832610.7592945,3908872760.3731413,0.0,6816705371.132436
port781,Muuga-Port of Talinn_Estonia,EST,POINT (24.968950691152937 59.49390124677661),59.49390124677661,24.968950691152937,2901414442.9845834,3150824605.653996,1028593770.6297003,7080832819.26828
port943,Port De Kribi_Cameroon,CMR,POINT (9.861209105887896 2.7249308635499347),2.7249308635499347,9.861209105887896,2881906656.9697895,4615068007.309126,1339807034.6196244,8836781698.89854
port1098,Reykjavik_Iceland,ISL,POINT (-21.843209348609548 64.16372638853352),64.16372638853352,-21.843209348609548,2881058024.6953545,3094413768.091572,399729887.9554882,6375201680.742414
port845,Oil terminal Agioi_Greece,GRC,POINT (23.074038021793513 37.92120179951978),37.92120179951978,23.074038021793513,2859837659.0511994,2351473685.9923744,2738636244.21194,7949947589.255513
port891,Pelabuhan Sansakan_Malaysia,MYS,POINT (118.06025513321892 5.80528858901949),5.80528858901949,118.06025513321892,2845136056.2923894,3136710225.8461466,48421788.83963244,6030268070.9781685
port321,El-Adabiya_Egypt,EGY,POINT (32.46211563003946 29.904162912450463),29.904162912450463,32.46211563003946,2839707204.4745736,1376430539.1930013,14396967.82441285,4230534711.4919877
port1001,Porto De Mucuripe_Brazil,BRA,POINT (-38.471535698316686 -3.713436298762973),-3.713436298762973,-38.471535698316686,2830502025.5268364,998204291.4307489,227775376.2268703,4056481693.184456
port1048,Puerto Ingeniero White_Argentina,ARG,POINT (-62.283464510515394 -38.78214151744961),-38.78214151744961,-62.283464510515394,2826327047.5766854,474124910.807276,4804920.993559147,3305256879.377521
port1180,Sendai-Shiogama_Japan,JPN,POINT (141.02755408634533 38.284719562940985),38.284719562940985,141.02755408634533,2822555894.6410923,4029141653.560299,704666082.2906429,7556363630.492034
port1383,Warri_Nigeria,NGA,POINT (5.7212717375279505 5.516631503727129),5.516631503727129,5.7212717375279505,2813973517.786893,742933331.5212331,773949.893115146,3557680799.201241
port632,Lanqiao Port_China,CHN,POINT (119.35685002809069 35.11048268331691),35.11048268331691,119.35685002809069,2811304829.500728,24707289691.022903,18687669.535033915,27537282190.058666
port621,La Plata_Argentina,ARG,POINT (-57.90767720153204 -34.87191068253609),-34.87191068253609,-57.90767720153204,2811062481.5259914,202419775.2783374,60134149.81844343,3073616406.622772
port1393,Whangerei_New Zealand,NZL,POINT (174.4881889562446 -35.84238338193423),-35.84238338193423,174.4881889562446,2807375876.102427,3283487526.4641423,6902924.570467175,6097766327.137036
port296,Djupviken_Norway,NOR,POINT (11.305065427305346 63.752865221539935),63.752865221539935,11.305065427305346,2794273348.991803,1446699404.0718606,61148215.36227681,4302120968.4259405
port714,Marugame Ko_Japan,JPN,POINT (133.7615702658724 34.289259680319596),34.289259680319596,133.7615702658724,2783551215.7818313,443706545.7195749,8785602.5076431,3236043364.0090494
port958,Port Jerome_France,FRA,POINT (0.532279572893152 49.481812884250246),49.481812884250246,0.532279572893152,2775266765.1973763,2459161974.2638655,561230308.8651819,5795659048.326424
port167,Bremen_Germany,DEU,POINT (8.777095691174901 53.094765459023336),53.094765459023336,8.777095691174901,2774805581.638089,3358120738.261534,37695911.382423416,6170622231.282047
port137,Beira_Mozambique,MOZ,POINT (34.83983894902818 -19.811070398912076),-19.811070398912076,34.83983894902818,2772038594.0991993,4578778261.436695,270040564.4947575,7620857420.030652
port322,Elevsis_Greece,GRC,POINT (23.533407743179595 38.04219308474212),38.04219308474212,23.533407743179595,2769639990.501299,1621686846.9683642,356231600.17960143,4747558437.649265
port64,Ardalstangen_Norway,NOR,POINT (7.709705946012606 61.23559149594584),61.23559149594584,7.709705946012606,2766623707.4813943,2443461772.6926622,0.0,5210085480.174057
port919,Point Noire_Republic of Congo,COG,POINT (11.83585413861118 -4.785478217231056),-4.785478217231056,11.83585413861118,2760955727.657834,5790452650.782144,11809475223.27083,20360883601.710808
port1161,Sao Francisco_Brazil,BRA,POINT (-48.62047395374106 -26.210395004525363),-26.210395004525363,-48.62047395374106,2750130513.1411276,7232783108.061794,101305624.24871975,10084219245.451643
port364,Fukuyama_Japan,JPN,POINT (133.4385466724517 34.462878531729864),34.462878531729864,133.4385466724517,2748962611.996266,5403882064.457241,206932.89626031084,8153051609.349767
port139,Belawan_Indonesia,IDN,POINT (98.70736597595845 3.7885427096548674),3.7885427096548674,98.70736597595845,2748535765.0671115,2499290764.8729367,298400099.5311307,5546226629.471179
port865,Otago_New Zealand,NZL,POINT (170.5614402454941 -45.84907535500466),-45.84907535500466,170.5614402454941,2744405524.5682945,492403638.94988674,555056381.1762943,3791865544.6944757
port182,Buco_Philippines,PHL,POINT (124.75294697853924 8.5174927667304),8.5174927667304,124.75294697853924,2743077320.773166,6524693131.236253,913078021.2724435,10180848473.281862
port1384,Waterford_Ireland,IRL,POINT (-7.040144356754386 52.267322784449505),52.267322784449505,-7.040144356754386,2730620096.535464,2518936231.6753798,195662696.67496687,5445219024.885811
port450,Hanko_Finland,FIN,POINT (22.929740154494358 59.820110543329484),59.820110543329484,22.929740154494358,2706072614.6622496,4194451602.0069427,1023250.9444149096,6901547467.613607
port1353,Varberg_Sweden,SWE,POINT (12.243969584985702 57.11530681337532),57.11530681337532,12.243969584985702,2703278364.7251163,731768547.9522332,84706511.59821483,3519753424.275564
port693,Manaus_Brazil,BRA,POINT (-59.96029805129589 -3.134152922423258),-3.134152922423258,-59.96029805129589,2698707172.3652654,17378646946.795654,1367706.5397812314,20078721825.7007
port999,Porto De Leizoes_Portugal,PRT,POINT (-8.69757511796987 41.19448451421975),41.19448451421975,-8.69757511796987,2692961197.176276,2682363204.5794344,5371359637.942098,10746684039.697807
port1208,Slagenstangen_Norway,NOR,POINT (10.514380977912042 59.31819836365456),59.31819836365456,10.514380977912042,2691415656.4985886,1879511253.3124413,660002111.8293978,5230929021.640428
port406,Gorgon LNG_Australia,AUS,POINT (115.45976156569424 -20.79232174218242),-20.79232174218242,115.45976156569424,2689976863.6290793,22160283013.286392,190.66375069050372,24850260067.57922
port1211,Songkhla Harbor_Thailand,THA,POINT (100.5712732732041 7.228638224011132),7.228638224011132,100.5712732732041,2631100685.951033,1429224022.2215178,33819644.45294278,4094144352.625494
port529,Kakinada Bay_India,IND,POINT (82.2718926251268 16.987073954938268),16.987073954938268,82.2718926251268,2606951248.4369946,9890308635.159569,159119955.4022285,12656379838.998793
port1425,Zhangjiangang_China,CHN,POINT (120.42881024260733 31.974623560988285),31.974623560988285,120.42881024260733,2606601389.8443604,6432200116.540686,394981091.8030513,9433782598.188097
port931,Port Angeles_Canada,CAN,POINT (-123.45432895386938 48.12879898102893),48.12879898102893,-123.45432895386938,2565432954.4607863,124375019.32660538,1317014847.5603695,4006822821.347761
port15,Ako_Japan,JPN,POINT (134.361613773323 34.747410740749174),34.747410740749174,134.361613773323,2563217287.8398027,4716156484.232123,0.0,7279373772.071926
port1119,Saganoseki Ko_Japan,JPN,POINT (131.87520292218096 33.254665892007345),33.254665892007345,131.87520292218096,2560662131.7911654,2550177127.197661,55436755.90794499,5166276014.896771
port965,Port Louis_Mauritius,MUS,POINT (57.495859868257725 -20.149417891516404),-20.149417891516404,57.495859868257725,2545650720.624061,3723174683.1200504,1835301641.0493157,8104127044.793427
port876,Palm Beach_U.S.A.,USA,POINT (-80.05581496660578 26.768017133014553),26.768017133014553,-80.05581496660578,2501468507.7463226,319126288.19100034,152698533.6766269,2973293329.61395
port964,Port Lincoln_Australia,AUS,POINT (135.87019979037743 -34.72199883261262),-34.72199883261262,135.87019979037743,2500774590.7738047,592133881.0001811,18426091.648986336,3111334563.422972
port956,Port Hueneme_U.S.A.,USA,POINT (-119.20944514707523 34.156052492218954),34.156052492218954,-119.20944514707523,2490273993.629987,9487820346.558811,1375718880.1038847,13353813220.292683
port995,"Portland, ME_U.S.A.",USA,POINT (-70.26948212709436 43.636493539898055),43.636493539898055,-70.26948212709436,2477610952.6489735,6909682766.052963,85706583.15951465,9473000301.861452
port582,Kobenhavn_Denmark,DNK,POINT (12.615333521024915 55.69510321588264),55.69510321588264,12.615333521024915,2471447847.5964823,3998012390.482917,457433629.9787091,6926893868.058108
port1282,Tema_Ghana,GHA,POINT (0.0007896226035502 5.626168215199538),5.626168215199538,0.0007896226035501763,2467737157.670145,9106629372.53795,1091330367.412785,12665696897.62088
port510,Izmir_Turkey,TUR,POINT (27.15610908859993 38.443157702970176),38.443157702970176,27.15610908859993,2454916661.6248655,4014733508.257161,1714922349.0800877,8184572518.962114
port811,New Mangalore_India,IND,POINT (74.8188795524312 12.937763928332963),12.937763928332963,74.8188795524312,2428546699.501739,5503205684.684668,139956939.05094594,8071709323.237353
port256,Come By Chance Harbor_Canada,CAN,POINT (-54.000482932348824 47.78874082562783),47.78874082562783,-54.000482932348824,2427654477.830809,371203148.2881158,2618294689.891517,5417152316.010443
port717,Matadi_Democratic Republic of the Congo,COD,POINT (13.444366717247508 -5.827041368666613),-5.827041368666613,13.444366717247508,2423414729.742873,3003354548.571535,259121552.9851932,5685890831.299602
port1309,Tonghae_South Korea,KOR,POINT (129.13845887498425 37.4880913966975),37.4880913966975,129.13845887498425,2417415312.587344,7075060629.298658,0.0,9492475941.886002
port124,Bata_Equatorial Guinea,GNQ,POINT (9.739146967804762 1.8256259158615709),1.8256259158615709,9.739146967804762,2412033150.4699845,336517919.10383534,2705702.2537801564,2751256771.8276005
port427,Guaymas_Mexico,MEX,POINT (-110.86736420579369 27.923313175810502),27.923313175810502,-110.86736420579369,2372796041.621275,376260970.3117515,3093.409282887097,2749060105.342309
port1288,Tha Thong_Thailand,THA,POINT (99.36651889241817 9.175864329727407),9.175864329727407,99.36651889241817,2353278023.882982,131347374.66974705,0.0,2484625398.5527287
port169,Brevik_Norway,NOR,POINT (9.692281148463389 59.06385806269804),59.06385806269804,9.692281148463389,2336695267.9531384,1381694086.9695392,53717460.76406794,3772106815.6867456
port205,Calabar_Nigeria,NGA,POINT (8.325139169155197 5.007882924271452),5.007882924271452,8.325139169155197,2316362599.239911,292053046.1531333,0.0,2608415645.3930445
port294,Djibouti_Djibouti,DJI,POINT (43.10371866277629 11.59746443353415),11.59746443353415,43.10371866277629,2306136778.091532,8800094142.014458,1040521874.9123205,12146752795.01831
port132,Bayrut_Lebanon,LBN,POINT (35.528526262145526 33.90234183027919),33.90234183027919,35.528526262145526,2298794748.093854,9670579720.14261,6466141025.803476,18435515494.03994
port62,Aratu_Brazil,BRA,POINT (-38.487990580516495 -12.783450461896127),-12.783450461896127,-38.487990580516495,2288258233.8014917,1714591439.7938108,15382697.084689328,4018232370.6799917
port977,Port Sudan_Sudan,SDN,POINT (37.233344447221945 19.603932998840996),19.603932998840996,37.233344447221945,2287806873.8648057,5995226707.385108,82659002.14324826,8365692583.393163
port80,Augusta_Italy,ITA,POINT (15.183932202418001 37.19392264018573),37.19392264018573,15.183932202418001,2277691970.26832,578906913.7560623,2882422142.0749593,5739021026.099342
port508,Iwakuni Ko_Japan,JPN,POINT (132.23695979307246 34.20374226174784),34.20374226174784,132.23695979307246,2254857100.355818,2312017295.6981535,1116748419.621002,5683622815.6749735
port1239,Susaki Ko_Japan,JPN,POINT (133.29157669064938 33.39265719291515),33.39265719291515,133.29157669064938,2248019723.321685,736777688.8668598,0.0,2984797412.1885448
port757,Mombasa_Kenya,KEN,POINT (39.634467096845086 -4.048091982541382),-4.048091982541382,39.634467096845086,2244390722.2856193,8380195733.243972,409884864.36421156,11034471319.893803
port1267,Tanjung Benete_Indonesia,IDN,POINT (116.74487753204045 -8.901785946976817),-8.901785946976817,116.74487753204045,2241498769.097359,1507573030.4590547,26311.425133060704,3749098110.981547
port1136,Salina Cruz_Mexico,MEX,POINT (-95.18846508600525 16.19017688345231),16.19017688345231,-95.18846508600525,2235374859.1507673,211800207.8236838,202638923.78622076,2649813990.7606716
port19,Al Aqabah_Jordan,JOR,POINT (34.958640737915914 29.451711888365246),29.451711888365246,34.958640737915914,2233431794.550434,2484117235.347357,24422298.617927186,4741971328.515718
port796,Narvik_Norway,NOR,POINT (17.4110264747677 68.42231694970069),68.42231694970069,17.4110264747677,2203052632.6657205,81926333.40298723,0.0,2284978966.0687075
port165,Brake_Germany,DEU,POINT (8.489910105536774 53.34359213320283),53.34359213320283,8.489910105536774,2193369702.990554,7334217060.360294,11894173.748435143,9539480937.099285
port503,Iskenderun_Turkey,TUR,POINT (36.193120262375196 36.60077591152603),36.60077591152603,36.193120262375196,2186275561.6728487,4097067745.9364395,2577838103.469337,8861181411.078625
port586,Kokkala_Finland,FIN,POINT (23.039282549174473 63.85519827991296),63.85519827991296,23.039282549174473,2181899455.2657633,1028152566.845164,215064.23069354525,3210267086.3416204
port1154,Santa Maria_Colombia,COL,POINT (-74.21500894159155 11.251457626243086),11.251457626243086,-74.21500894159155,2167145733.592378,2709684970.7663674,78117710.55361478,4954948414.91236
port120,Barranquilla_Colombia,COL,POINT (-74.77946096592984 10.995983140657987),10.995983140657987,-74.77946096592984,2165226648.0594807,5726801853.429373,65356267.309598334,7957384768.798451
port79,Auckland_New Zealand,NZL,POINT (174.7739520335586 -36.84280038036584),-36.84280038036584,174.7739520335586,2142064741.6958992,11072795204.203306,14122107329.65789,27336967275.5571
port159,Boston_U.S.A.,USA,POINT (-71.03617153597182 42.37717521495631),42.37717521495631,-71.03617153597182,2122332016.082931,29955384683.615524,1676575177.3761697,33754291877.074627
port1129,Sakaide Ko_Japan,JPN,POINT (133.8496122416061 34.340451186409325),34.340451186409325,133.8496122416061,2114452038.52625,1036584242.9931507,8503.607292436918,3151044785.1266932
port48,Anchorage_U.S.A.,USA,POINT (-149.87432856449828 61.23279292047068),61.23279292047068,-149.87432856449828,2113895741.2275438,225884348.4212901,127284574.43516478,2467064664.0839987
port535,Kampong Saom_Cambodia,KHM,POINT (103.52745655562846 10.679000043415694),10.679000043415694,103.52745655562846,2095402554.088651,3517122209.467702,97883628.57049368,5710408392.126846
port599,Krishnapatnam Port_India,IND,POINT (80.11792197256175 14.260650232705343),14.260650232705343,80.11792197256175,2093130541.9517496,7089910457.492275,1112692.343356662,9184153691.787382
port1246,Szczecin_Poland,POL,POINT (14.587266396561752 53.437821480421604),53.437821480421604,14.587266396561752,2078330973.8002772,4817177748.700211,207508465.43998694,7103017187.940475
port652,Lirquen_Chile,CHL,POINT (-72.98212942866691 -36.717896673264),-36.717896673264,-72.98212942866691,2067885073.3770585,287772796.7702121,30579592.337470602,2386237462.484741
port624,Lae_Papua New Guinea,PNG,POINT (146.9873906236412 -6.736625768490399),-6.736625768490399,146.9873906236412,2049233376.1949613,1608917877.2748058,294473811.7104837,3952625065.1802506
port459,Helsingborg_Sweden,SWE,POINT (12.73910204216621 55.98575725015415),55.98575725015415,12.73910204216621,2044648088.576195,3789218019.732253,2159118926.514661,7992985034.823109
port266,Covenas Offshore Term._Colombia,COL,POINT (-75.69862757158533 9.404219878394926),9.404219878394926,-75.69862757158533,2041622504.7375472,196829333.2731009,92197367.23208901,2330649205.2427373
port1083,Rada Di vado_Italy,ITA,POINT (8.437281338684002 44.27052526766963),44.27052526766963,8.437281338684002,2036749351.2028253,1870188808.804141,991521555.6856012,4898459715.692568
port245,Cilacap_Indonesia,IDN,POINT (109.03883428026491 -7.710107441187323),-7.710107441187323,109.03883428026491,2027998394.794474,1913719745.534993,2672045.7502879123,3944390186.079755
port780,Muroran Ko_Japan,JPN,POINT (140.97194083539165 42.34609537232022),42.34609537232022,140.97194083539165,2018375622.6073043,1624383962.402436,292.6785330213696,3642759877.6882734
port737,Midia_Romania,ROU,POINT (28.659239386023337 44.34168710057291),44.34168710057291,28.659239386023337,2016183736.6417694,1192613355.280341,544230802.0168874,3753027893.938998
port0,Abbot Point_Australia,AUS,POINT (148.0776204373203 -19.89375524723548),-19.89375524723548,148.0776204373203,2014271951.6554644,213459218.58713317,219361983.33803892,2447093153.5806365
port1078,Qui Nhon_Vietnam,VNM,POINT (109.24444818553013 13.776105499138522),13.776105499138522,109.24444818553013,2011966748.6754508,405268774.5753145,28335605.334962822,2445571128.585728
port578,Kisarazu Ko_Japan,JPN,POINT (139.86810777050732 35.359021465146704),35.359021465146704,139.86810777050732,1998032735.4590724,12495797739.270817,195577.3877307285,14494026052.11762
port1037,Puerto Cristobal_Panama,PAN,POINT (-79.90654355824726 9.345538334466248),9.345538334466248,-79.90654355824726,1987589996.4984057,4577310022.106364,10523882056.885263,17088782075.490032
port959,Port Kembla_Australia,AUS,POINT (150.88448543445628 -34.46209936221515),-34.46209936221515,150.88448543445628,1987194578.8235562,4529374166.553187,308996186.048445,6825564931.425188
port928,Porsgrunn_Norway,NOR,POINT (9.59530524932078 59.11512823204761),59.11512823204761,9.59530524932078,1983737610.1698563,1467864606.4045613,1261157443.5605183,4712759660.134935
port1408,Yanbu_Saudi Arabia,SAU,POINT (38.07030618419747 24.077151538430172),24.077151538430172,38.07030618419747,1967799906.0413618,654019168.4574071,0.0,2621819074.498769
port1432,rada Punta Arenas_Chile,CHL,POINT (-70.86785153706029 -53.13033106005365),-53.13033106005365,-70.86785153706029,1966680520.313487,348436643.61519396,396246767.494826,2711363931.4235067
port1111,Rostock_Germany,DEU,POINT (12.110180872871123 54.13941738989125),54.13941738989125,12.110180872871123,1949204913.091042,2357170321.6930614,27316753.56875492,4333691988.352859
port501,Ishikari Bay New Port_Japan,JPN,POINT (141.29231877319756 43.200962619609456),43.200962619609456,141.29231877319756,1944572895.0445793,2326580023.2864738,10168920.603082685,4281321838.9341354
port1268,Tanjung Geren_Indonesia,IDN,POINT (105.9991514873678 -5.963722373924438),-5.963722373924438,105.9991514873678,1943122905.3179424,3004323166.822489,204382438.7715529,5151828510.911984
port207,Calcutta_India,IND,POINT (88.29958110960771 22.535744012635703),22.535744012635703,88.29958110960771,1936448740.2488117,5866617222.590991,158542140.58393314,7961608103.423736
port775,Muhamamad Bin Qasim_Pakistan,PAK,POINT (67.32181857025371 24.808384578823954),24.808384578823954,67.32181857025371,1935256490.0287118,4109320470.0129633,369635236.76325935,6414212196.8049345
port1351,Vancouver_U.S.A.,USA,POINT (-122.72741242164274 45.6380227086201),45.6380227086201,-122.72741242164274,1928404605.0042546,4123861897.723496,192.1920017740664,6052266694.919752
port1144,San Miguel De Cozumel_Mexico,MEX,POINT (-87.13206903780039 20.574792564856683),20.574792564856683,-87.13206903780039,1924159977.5515063,46718409.898648344,0.0,1970878387.4501545
port401,Golcuk Burnu_Turkey,TUR,POINT (29.866672643393184 40.7191964669835),40.7191964669835,29.866672643393184,1916015911.9663377,2012325311.3365676,96091277.86965527,4024432501.17256
port85,Az Zawiya_Libya,LBY,POINT (12.700008451912137 32.78550355961522),32.78550355961522,12.700008451912137,1889838395.4976344,537143890.1735985,14968465.0552925,2441950750.726526
port156,Bontang LNG Terminal_Indonesia,IDN,POINT (117.49256737222485 0.0968865572556536),0.09688655725565362,117.49256737222485,1867818030.642323,97128621.4644411,1686348.848974935,1966633000.955739
port453,Harbor Yeweiju_China,CHN,POINT (118.94526262563811 38.089194702777675),38.089194702777675,118.94526262563811,1867688525.6104784,555811906.1450317,333839585.2060946,2757340016.961605
port191,Bur Safago_Egypt,EGY,POINT (33.94223110377931 26.725555514982844),26.725555514982844,33.94223110377931,1866033690.756193,1449712660.0223649,0.0,3315746350.778558
port136,Beihai_China,CHN,POINT (109.06715220452973 21.47255147905038),21.47255147905038,109.06715220452973,1847231111.158131,1667715400.2665205,64231502.22315606,3579178013.647807
port1413,Yeysk_Russia,RUS,POINT (38.27383153894441 46.727610869646526),46.727610869646526,38.27383153894441,1840190502.756619,192074819.8919568,71517048.4788744,2103782371.1274502
port907,Pipavav Bandar_India,IND,POINT (71.46568354808345 20.90789388926143),20.90789388926143,71.46568354808345,1840099146.1476305,3136080562.272445,87704195.61519992,5063883904.035275
port1310,Topolorampo_Mexico,MEX,POINT (-109.0558619570523 25.58916702942682),25.58916702942682,-109.0558619570523,1838991011.4268308,3168233323.337936,4455330.44668583,5011679665.2114525
port265,Cotonou_Benin,BEN,POINT (2.4229238723398545 6.345724287103881),6.345724287103881,2.4229238723398545,1837731822.441692,13452382201.902308,2901246833.0301466,18191360857.374146
port944,Port De Salvador_Brazil,BRA,POINT (-38.50530503953617 -12.9565254311773),-12.9565254311773,-38.50530503953617,1821579144.4563446,4915387479.499432,2456957166.499765,9193923790.455542
port1366,Villanueva_Philippines,PHL,POINT (124.76002526848775 8.607068203057018),8.607068203057018,124.76002526848775,1777000347.8882477,1016320509.5801202,1780388.5317719115,2795101246.00014
port187,Bukhta Vanino_Russia,RUS,POINT (140.300631210434 49.09019680829846),49.09019680829846,140.300631210434,1769212903.9010198,247311524.4958416,1206058.5465791044,2017730486.9434404
port953,Port Giles_Australia,AUS,POINT (137.76004610960675 -35.02155950144049),-35.02155950144049,137.76004610960675,1769153322.2251139,0.0,0.0,1769153322.2251139
port101,Balboa_Panama,PAN,POINT (-79.56547193480111 8.955321949548559),8.955321949548559,-79.56547193480111,1768875066.0334244,12238312539.751474,74512811886.22171,88519999492.0066
port1294,Thevenard_Australia,AUS,POINT (133.64843997140636 -32.14851383766962),-32.14851383766962,133.64843997140636,1752904003.244895,21636335.7698636,0.0,1774540339.0147586
port386,General Santos_Philippines,PHL,POINT (125.1478438643604 6.060167101255927),6.060167101255927,125.1478438643604,1748098391.9034925,1998627245.0902112,136456132.9301469,3883181769.9238505
port604,Kuching_Malaysia,MYS,POINT (110.4216777863437 1.5662584029975966),1.5662584029975966,110.4216777863437,1739274283.8054724,2407154229.5381064,1833708.0993854245,4148262221.442964
